[{"address":"הרצליה 1 ספיר","geocoded":{"lat":32.164106,"lng":34.81169}},{"address":"גבעתיים 15 אלוף שדה","geocoded":{"lat":32.058948,"lng":34.8152367}},{"address":"תל אביב - יפו 16 פרץ י ל","geocoded":{"lat":32.0596065,"lng":34.7748304}},{"address":"תל אביב - יפו 27 חיל המשמר","geocoded":{"lat":32.123665,"lng":34.8050628}},{"address":"תל אביב - יפו 2 בלוך דוד","geocoded":{"lat":32.0813149,"lng":34.7815446}},{"address":"חולון 34 החופר","geocoded":{"lat":32.0096827,"lng":34.8054565}},{"address":"תל אביב - יפו 3 הר סיני","geocoded":{"lat":32.0646539,"lng":34.7719526}},{"address":"תל אביב - יפו 15 הברזל","geocoded":{"lat":32.1077082,"lng":34.8375268}},{"address":"תל אביב - יפו 34 יהודה הלוי","geocoded":{"lat":32.0613692,"lng":34.7711949}},{"address":"גבעתיים 3 רמב~ם","geocoded":{"lat":32.070368,"lng":34.805232}},{"address":"הרצליה 71 גולומב אליהו","geocoded":{"lat":32.1741699,"lng":34.8498703}},{"address":"תל אביב - יפו 29 שרת משה","geocoded":{"lat":32.0879276,"lng":34.7878438}},{"address":"תל אביב - יפו 21 אהבת ציון","geocoded":{"lat":32.0888465,"lng":34.7942256}},{"address":"רמת גן 23 תובל","geocoded":{"lat":32.0841101,"lng":34.8015372}},{"address":"תל אביב - יפו 9 הרב ניסים","geocoded":{"lat":32.0918346,"lng":34.7989622}},{"address":"תל אביב - יפו 1 בלוך דוד","geocoded":{"lat":32.0816611,"lng":34.7814964}},{"address":"תל אביב - יפו 296 דיזינגוף","geocoded":{"lat":32.0940302,"lng":34.7768092}},{"address":"תל אביב - יפו 25 המלך ג'ורג'","geocoded":{"lat":32.0714377,"lng":34.7726769}},{"address":"תל אביב - יפו 62 ארלוזורוב","geocoded":{"lat":32.0859372,"lng":34.7775102}},{"address":"תל אביב - יפו 111 הירקון","geocoded":{"lat":32.0807047,"lng":34.7683342}},{"address":"הרצליה 2 המנופים","geocoded":{"lat":32.1604408,"lng":34.8064033}},{"address":"תל אביב - יפו 19 גרונר דב","geocoded":{"lat":32.1255145,"lng":34.8071545}},{"address":"תל אביב - יפו 4 אלנבי","geocoded":{"lat":32.073411,"lng":34.765479}},{"address":"תל אביב - יפו 21 שוקן","geocoded":{"lat":32.0520128,"lng":34.7724759}},{"address":"ראשון לציון 13 שנקר אריה","geocoded":{"lat":31.9504202,"lng":34.7579052}},{"address":"גבעתיים 5 ח~ן","geocoded":{"lat":32.072176,"lng":34.808871}},{"address":"תל אביב - יפו 14 וולפסון","geocoded":{"lat":32.05803,"lng":34.770579}},{"address":"תל אביב - יפו 8 פרנקפורט","geocoded":{"lat":32.0885402,"lng":34.7748332}},{"address":"תל אביב - יפו 6 רפידים","geocoded":{"lat":32.1095473,"lng":34.813172}},{"address":"תל אביב - יפו 12 דיזנגוף","geocoded":{"lat":32.0741309,"lng":34.7800729}},{"address":"תל אביב - יפו 14 פרנקפורט","geocoded":{"lat":32.0890378,"lng":34.7749561}},{"address":"תל אביב - יפו 35 השופטים","geocoded":{"lat":32.07638170000001,"lng":34.7824606}},{"address":"הרצליה 56 הקדמה","geocoded":{"lat":32.1856118,"lng":34.8074322}},{"address":"רמת גן 5 בדנר","geocoded":{"lat":32.0881575,"lng":34.8112496}},{"address":"חולון 30 קבוץ גלויות","geocoded":{"lat":32.0108741,"lng":34.7897768}},{"address":"תל אביב - יפו 22 בבלי","geocoded":{"lat":32.0955233,"lng":34.798657}},{"address":"תל אביב - יפו 34 אחד העם","geocoded":{"lat":32.0639283,"lng":34.7720112}},{"address":"תל אביב - יפו 4 הירשנברג","geocoded":{"lat":32.081983,"lng":34.7746196}},{"address":"תל אביב - יפו 40 שדרות ח~ן","geocoded":{"lat":32.0779536,"lng":34.7801873}},{"address":"תל אביב - יפו 94 אלון יגאל","geocoded":{"lat":32.0685272,"lng":34.7941568}},{"address":"תל אביב - יפו 2 קויפמן יחזקאל","geocoded":{"lat":32.0630171,"lng":34.7620001}},{"address":"תל אביב - יפו 52 נחלת בנימין","geocoded":{"lat":32.0634108,"lng":34.7715568}},{"address":"גבעתיים 6 קפלנסקי","geocoded":{"lat":32.0640717,"lng":34.8150605}},{"address":"תל אביב - יפו 63 חובבי ציון","geocoded":{"lat":32.0786995,"lng":34.7717223}},{"address":"תל אביב - יפו 23 יהודה הלוי","geocoded":{"lat":32.0616565,"lng":34.7706795}},{"address":"ראשון לציון 13 איתן","geocoded":{"lat":31.9929992,"lng":34.764155}},{"address":"תל אביב - יפו 94 אלנבי","geocoded":{"lat":32.0662971,"lng":34.7716161}},{"address":"תל אביב - יפו 14 יוסף אליהו","geocoded":{"lat":32.0752896,"lng":34.7809141}},{"address":"הרצליה 91 מדינת היהודים","geocoded":{"lat":32.1660383,"lng":34.8113712}},{"address":"תל אביב - יפו 11 ביל~ו","geocoded":{"lat":32.0689318,"lng":34.7796877}},{"address":"תל אביב - יפו 4 ויצמן","geocoded":{"lat":32.0778264,"lng":34.78877990000001}},{"address":"תל אביב - יפו 12 שבזי","geocoded":{"lat":32.0612425,"lng":34.7635617}},{"address":"תל אביב - יפו 6 ולנברג ראול","geocoded":{"lat":32.1077947,"lng":34.8352135}},{"address":"תל אביב - יפו 5 מרגולין","geocoded":{"lat":32.058821,"lng":34.788384}},{"address":"תל אביב - יפו 13 יפה בצלאל","geocoded":{"lat":32.0640019,"lng":34.7760968}},{"address":"תל אביב - יפו 17 מיקוניס שמואל","geocoded":{"lat":32.0600067,"lng":34.7856124}},{"address":"תל אביב - יפו 41 עמק ברכה","geocoded":{"lat":32.0756772,"lng":34.8011046}},{"address":"רמת גן 11 דרך בגין מנחם","geocoded":{"lat":32.0864082,"lng":34.8004541}},{"address":"תל אביב - יפו 18 הירשנברג","geocoded":{"lat":32.0831797,"lng":34.7748894}},{"address":"רמת גן 13 תובל","geocoded":{"lat":32.0866698,"lng":34.803377}},{"address":"תל אביב - יפו 3 לבונטין","geocoded":{"lat":32.0615597,"lng":34.7739714}},{"address":"תל אביב - יפו 2 גליקסון","geocoded":{"lat":32.0768746,"lng":34.7721537}},{"address":"תל אביב - יפו 12 אופנהיימר","geocoded":{"lat":32.1202401,"lng":34.8005302}},{"address":"רמת גן 2 ז'בוטינסקי","geocoded":{"lat":32.0735556,"lng":34.8089065}},{"address":"תל אביב - יפו 18 עמנואל הרומי","geocoded":{"lat":32.0870375,"lng":34.7813227}},{"address":"תל אביב - יפו 84 שדרות בן גוריון","geocoded":{"lat":32.0818883,"lng":34.7787444}},{"address":"תל אביב - יפו 1 מלצ'ט","geocoded":{"lat":32.0663173,"lng":34.7748214}},{"address":"תל אביב - יפו 10 קרית ספר","geocoded":{"lat":32.0694382,"lng":34.7818694}},{"address":"תל אביב - יפו 6 נצח ישראל","geocoded":{"lat":32.0777148,"lng":34.7786321}},{"address":"תל אביב - יפו 23 עמינדב","geocoded":{"lat":32.064971,"lng":34.7957839}},{"address":"תל אביב - יפו 8 שד' שאול המלך","geocoded":{"lat":32.0753059,"lng":34.7839623}},{"address":"תל אביב - יפו 4 ברקוביץ","geocoded":{"lat":32.0785529,"lng":34.7869819}},{"address":"תל אביב - יפו 6 נתן החכם","geocoded":{"lat":32.0826621,"lng":34.7719201}},{"address":"תל אביב - יפו 34 בלפור","geocoded":{"lat":32.0669591,"lng":34.7761587}},{"address":"תל אביב - יפו 93 ארלוזורוב","geocoded":{"lat":32.0849727,"lng":34.7843281}},{"address":"ראשון לציון 66 המשוררת רחל","geocoded":{"lat":31.9760948,"lng":34.7668901}},{"address":"תל אביב - יפו 71 פרישמן","geocoded":{"lat":32.079667,"lng":34.7788235}},{"address":"רמת גן 16 קריניצי","geocoded":{"lat":32.07939,"lng":34.8161888}},{"address":"תל אביב - יפו 119 אלנבי","geocoded":{"lat":32.0617215,"lng":34.773737}},{"address":"רמת גן 148 דרך אבא הלל","geocoded":{"lat":32.0952313,"lng":34.8202102}},{"address":"רמת גן 9 הרי הגלעד","geocoded":{"lat":32.0844489,"lng":34.8056638}},{"address":"רמת גן 5 קריניצי","geocoded":{"lat":32.0795632,"lng":34.8153702}},{"address":"תל אביב - יפו 110 אלון יגאל","geocoded":{"lat":32.0717439,"lng":34.7946312}},{"address":"תל אביב - יפו 17 אלחריזי","geocoded":{"lat":32.0848402,"lng":34.7811061}},{"address":"תל אביב - יפו 114 אחד העם","geocoded":{"lat":32.0692563,"lng":34.7776651}},{"address":"תל אביב - יפו 3 נירים","geocoded":{"lat":32.0626673,"lng":34.7905378}},{"address":"תל אביב - יפו 3 לכיש","geocoded":{"lat":32.079761,"lng":34.7789111}},{"address":"תל אביב - יפו 50 פנקס","geocoded":{"lat":32.090648,"lng":34.7894785}},{"address":"רמת גן 11 חגי","geocoded":{"lat":32.0599871,"lng":34.8307005}},{"address":"תל אביב - יפו 5 בן אב~י איתמר","geocoded":{"lat":32.0723602,"lng":34.7826531}},{"address":"הרצליה 11 גלגל הפלדה","geocoded":{"lat":32.1639925,"lng":34.8076648}},{"address":"הרצליה 69 גולומב אליהו","geocoded":{"lat":32.1745247,"lng":34.8494559}},{"address":"תל אביב - יפו 6 בילויה","geocoded":{"lat":32.1008037,"lng":34.7877333}},{"address":"תל אביב - יפו 72 שדרות בן גוריון","geocoded":{"lat":32.0825061,"lng":34.7775748}},{"address":"תל אביב - יפו 3 קלונימוס","geocoded":{"lat":32.0866169,"lng":34.7802865}},{"address":"תל אביב - יפו 5 ארנון","geocoded":{"lat":32.0837311,"lng":34.7700402}},{"address":"תל אביב - יפו 8 מקוה ישראל","geocoded":{"lat":32.0621851,"lng":34.7745888}},{"address":"גבעתיים 6 שפירא ישראל","geocoded":{"lat":32.06325290000001,"lng":34.8078713}},{"address":"תל אביב - יפו 59 גורדון י ל","geocoded":{"lat":32.0814362,"lng":34.7763736}},{"address":"תל אביב - יפו 5 חדרה","geocoded":{"lat":32.0854391,"lng":34.7866367}},{"address":"תל אביב - יפו 8 אלחריזי","geocoded":{"lat":32.0848586,"lng":34.7802164}},{"address":"תל אביב - יפו 225 דיזנגוף","geocoded":{"lat":32.0904714,"lng":34.775644}},{"address":"תל אביב - יפו 32 ולנברג ראול","geocoded":{"lat":32.113471,"lng":34.840455}},{"address":"תל אביב - יפו 3 יפה נוף","geocoded":{"lat":32.0902335,"lng":34.7747368}},{"address":"תל אביב - יפו 5 ליברמן","geocoded":{"lat":32.0855571,"lng":34.7780702}},{"address":"תל אביב - יפו 8 אייבשיץ","geocoded":{"lat":32.09048,"lng":34.77886489999999}},{"address":"תל אביב - יפו 101 שד נורדאו","geocoded":{"lat":32.0919271,"lng":34.7825805}},{"address":"תל אביב - יפו 4 בחור אליהו","geocoded":{"lat":32.0866146,"lng":34.7816085}},{"address":"תל אביב - יפו 7 קצנלסון יצחק","geocoded":{"lat":32.0769153,"lng":34.7822289}},{"address":"תל אביב - יפו 10 נהרדעא","geocoded":{"lat":32.082505,"lng":34.7867265}},{"address":"תל אביב - יפו 5 יהודה המכבי","geocoded":{"lat":32.0940034,"lng":34.7848168}},{"address":"תל אביב - יפו 54 שדרות בן גוריון","geocoded":{"lat":32.0839224,"lng":34.7750429}},{"address":"תל אביב - יפו 14 רופין","geocoded":{"lat":32.082088,"lng":34.7704305}},{"address":"תל אביב - יפו 114 אלון יגאל","geocoded":{"lat":32.072651,"lng":34.7950304}},{"address":"רמת גן 17 ביאליק","geocoded":{"lat":32.0806176,"lng":34.8147233}},{"address":"תל אביב - יפו","geocoded":{"lat":32.0852999,"lng":34.78176759999999}},{"address":"תל אביב - יפו 236 בן יהודה","geocoded":{"lat":32.0929369,"lng":34.7750503}},{"address":"תל אביב - יפו 128 דרך בגין","geocoded":{"lat":32.0724821,"lng":34.7906297}},{"address":"תל אביב - יפו 12 אנטוקולסקי","geocoded":{"lat":32.0840798,"lng":34.7837723}},{"address":"רמת גן 7 ז'בוטינסקי","geocoded":{"lat":32.0737943,"lng":34.8093534}},{"address":"הרצליה 4 שד' אלי לנדאו","geocoded":{"lat":32.1787814,"lng":34.8033932}},{"address":"תל אביב - יפו 17 ארבע ארצות","geocoded":{"lat":32.0878271,"lng":34.7780019}},{"address":"תל אביב - יפו 10 קצנלסון יצחק","geocoded":{"lat":32.077428,"lng":34.7823849}},{"address":"תל אביב - יפו 4 רמח~ל","geocoded":{"lat":32.0634282,"lng":34.7752628}},{"address":"הרצליה 12 הקסם","geocoded":{"lat":32.162413,"lng":34.844675}},{"address":"תל אביב - יפו 5 יהל~ל","geocoded":{"lat":32.0839522,"lng":34.7772796}},{"address":"רמת גן 13 קציר","geocoded":{"lat":32.068424,"lng":34.824785}},{"address":"רמת גן 12 דרך אבא הלל","geocoded":{"lat":32.0850573,"lng":34.8045422}},{"address":"תל אביב - יפו 32 הנביאים","geocoded":{"lat":32.0755035,"lng":34.7809353}},{"address":"תל אביב - יפו 82 ז'בוטינסקי","geocoded":{"lat":32.073048,"lng":34.8171062}},{"address":"תל אביב - יפו 47 סוקולוב","geocoded":{"lat":32.0898646,"lng":34.7776614}},{"address":"חולון 3 תמנע","geocoded":{"lat":32.0261533,"lng":34.7968945}},{"address":"תל אביב - יפו 9 בן עזרא","geocoded":{"lat":32.044264,"lng":34.790606}},{"address":"תל אביב - יפו 49 ביל~ו","geocoded":{"lat":32.0724093,"lng":34.7808853}},{"address":"תל אביב - יפו 4 שד' הציונות","geocoded":{"lat":32.08655,"lng":34.7929762}},{"address":"תל אביב - יפו 17 קפלן","geocoded":{"lat":32.0736876,"lng":34.7837738}},{"address":"תל אביב - יפו 5 זרובבל","geocoded":{"lat":32.0706956,"lng":34.7645864}},{"address":"תל אביב - יפו 28 דרך בגין","geocoded":{"lat":32.061257,"lng":34.7775897}},{"address":"תל אביב - יפו 56 אחד העם","geocoded":{"lat":32.0646051,"lng":34.7745756}},{"address":"תל אביב - יפו 25 שדרות רוטשילד","geocoded":{"lat":32.0700564,"lng":34.7785371}},{"address":"תל אביב - יפו 16 עובדיה מברטנורה","geocoded":{"lat":32.091307,"lng":34.7798295}},{"address":"תל אביב - יפו 2 מבוא גילת","geocoded":{"lat":32.120818,"lng":34.827091}},{"address":"תל אביב - יפו 57 ז'בוטינסקי","geocoded":{"lat":32.07344,"lng":34.815519}},{"address":"תל אביב - יפו 100 החשמונאים","geocoded":{"lat":32.0692046,"lng":34.7867423}},{"address":"רמת גן 1 דרך בן גוריון דוד","geocoded":{"lat":32.0956351,"lng":34.82214130000001}},{"address":"תל אביב - יפו 4 בורוכוב","geocoded":{"lat":32.0723059,"lng":34.7742114}},{"address":"הרצליה 47 נוף שדמות","geocoded":{"lat":32.17332020000001,"lng":34.8178194}},{"address":"תל אביב - יפו 14 יד חרוצים","geocoded":{"lat":32.0615048,"lng":34.7833141}},{"address":"תל אביב - יפו 8 שולמית","geocoded":{"lat":32.0784022,"lng":34.7756771}},{"address":"תל אביב - יפו 13 יוסף הנשיא","geocoded":{"lat":32.0688574,"lng":34.7738135}},{"address":"תל אביב - יפו 23 שטנד","geocoded":{"lat":32.0791391,"lng":34.7775464}},{"address":"חולון 16 הנפח","geocoded":{"lat":32.0184419,"lng":34.79852870000001}},{"address":"תל אביב - יפו 51 ויצמן","geocoded":{"lat":32.0846999,"lng":34.7891298}},{"address":"תל אביב - יפו 250 בן יהודה","geocoded":{"lat":32.0944772,"lng":34.775478}},{"address":"תל אביב - יפו 24 הוברמן","geocoded":{"lat":32.0736113,"lng":34.7808545}},{"address":"תל אביב - יפו 4 בן עזרא","geocoded":{"lat":32.044264,"lng":34.790606}},{"address":"ראשון לציון 1 נח מוזס","geocoded":{"lat":31.9929346,"lng":34.7604553}},{"address":"תל אביב - יפו 4 שדרות רוטשילד","geocoded":{"lat":32.0626072,"lng":34.769188}},{"address":"תל אביב - יפו 36 הוז דב","geocoded":{"lat":32.0823742,"lng":34.7726047}},{"address":"תל אביב - יפו 1 מוסינזון","geocoded":{"lat":32.0881565,"lng":34.7830639}},{"address":"תל אביב - יפו 2 למדן יצחק","geocoded":{"lat":32.117864,"lng":34.8211826}},{"address":"תל אביב - יפו 11 יהודה המכבי","geocoded":{"lat":32.0939971,"lng":34.7854285}},{"address":"תל אביב - יפו 7 גוטליב","geocoded":{"lat":32.0826865,"lng":34.7751894}},{"address":"רמת גן 35 ז'בוטינסקי","geocoded":{"lat":32.0730855,"lng":34.8124571}},{"address":"תל אביב - יפו 65 אלון יגאל","geocoded":{"lat":32.0657718,"lng":34.7922834}},{"address":"תל אביב - יפו 68 ביל~ו","geocoded":{"lat":32.072594,"lng":34.7811824}},{"address":"תל אביב - יפו 4 מגדל שרשן","geocoded":{"lat":32.1169804,"lng":34.8119832}},{"address":"תל אביב - יפו 49 קבוץ גלויות","geocoded":{"lat":32.0518135,"lng":34.7691848}},{"address":"תל אביב - יפו 20 דגניה","geocoded":{"lat":32.0633088,"lng":34.7659329}},{"address":"תל אביב - יפו 20 פרוג","geocoded":{"lat":32.0801133,"lng":34.7731089}},{"address":"תל אביב - יפו 257 דיזנגוף","geocoded":{"lat":32.0939458,"lng":34.7765379}},{"address":"תל אביב - יפו 42 שדרות ח~ן","geocoded":{"lat":32.0782018,"lng":34.7803151}},{"address":"רמת גן 6 המבדיל","geocoded":{"lat":32.089769,"lng":34.8171783}},{"address":"הרצליה 60 מדינת היהודים","geocoded":{"lat":32.1659247,"lng":34.8096738}},{"address":"תל אביב - יפו 2 אבן גבירול","geocoded":{"lat":32.0715069,"lng":34.7821156}},{"address":"תל אביב - יפו 156 דרך בגין","geocoded":{"lat":32.0798437,"lng":34.7957496}},{"address":"הרצליה 2 בן גוריון","geocoded":{"lat":32.1669945,"lng":34.8424397}},{"address":"תל אביב - יפו 52 סוקולוב","geocoded":{"lat":32.09113420000001,"lng":34.7781622}},{"address":"תל אביב - יפו 19 ברודצקי","geocoded":{"lat":32.1080217,"lng":34.7981835}},{"address":"תל אביב - יפו 28 חובבי ציון","geocoded":{"lat":32.0765327,"lng":34.7699744}},{"address":"תל אביב - יפו 5 נהרדעא","geocoded":{"lat":32.0829167,"lng":34.7862347}},{"address":"תל אביב - יפו 175 אבן גבירול","geocoded":{"lat":32.0930503,"lng":34.7831204}},{"address":"תל אביב - יפו 11 פרישמן","geocoded":{"lat":32.0800026,"lng":34.7690543}},{"address":"תל אביב - יפו 31 בזל","geocoded":{"lat":32.0900917,"lng":34.7788356}},{"address":"גבעתיים 55 עמישב","geocoded":{"lat":32.0607008,"lng":34.8077453}},{"address":"רמת גן 34 הבילויים","geocoded":{"lat":32.060432,"lng":34.824424}},{"address":"חולון 28 החופר","geocoded":{"lat":32.0106468,"lng":34.8058052}},{"address":"הרצליה 4 אוסישקין","geocoded":{"lat":32.1611964,"lng":34.8456454}},{"address":"תל אביב - יפו 19 ליסין","geocoded":{"lat":32.085579,"lng":34.7928062}},{"address":"הרצליה 2 מודיעין","geocoded":{"lat":32.162413,"lng":34.844675}},{"address":"הרצליה 67 הדר","geocoded":{"lat":32.1741372,"lng":34.8485157}},{"address":"הרצליה 9 הרב הלפרין מרדכי","geocoded":{"lat":32.165079,"lng":34.8407169}},{"address":"חולון 179 ההסתדרות","geocoded":{"lat":32.0138591,"lng":34.7876658}},{"address":"תל אביב - יפו 2 הר סיני","geocoded":{"lat":32.0643687,"lng":34.771751}},{"address":"תל אביב - יפו 60 בן יהודה","geocoded":{"lat":32.0788013,"lng":34.7692808}},{"address":"תל אביב - יפו 14 ליפסקי לואי","geocoded":{"lat":32.0892755,"lng":34.7881402}},{"address":"תל אביב - יפו 15 עובדיה מברטנורה","geocoded":{"lat":32.0914901,"lng":34.78022200000001}},{"address":"גבעתיים 4 ויצמן","geocoded":{"lat":32.0761284,"lng":34.8087479}},{"address":"תל אביב - יפו 5 מלכי ישראל","geocoded":{"lat":32.0799659,"lng":34.77974760000001}},{"address":"תל אביב - יפו 22 בצלאל","geocoded":{"lat":32.082697,"lng":34.7852531}},{"address":"הרצליה 10 שד אבא אבן","geocoded":{"lat":32.1619677,"lng":34.808653}},{"address":"תל אביב - יפו 12 כיכר דיזנגוף","geocoded":{"lat":32.0741309,"lng":34.7800729}},{"address":"תל אביב - יפו 3 סמ בית הבד","geocoded":{"lat":32.0718101,"lng":34.7878206}},{"address":"תל אביב - יפו 25 ברדיצ'בסקי","geocoded":{"lat":32.0708901,"lng":34.7811042}},{"address":"רמת גן 25 דרך אבא הלל","geocoded":{"lat":32.08706220000001,"lng":34.8053883}},{"address":"רמת גן 155 ביאליק","geocoded":{"lat":32.0891759,"lng":34.801579}},{"address":"רמת גן 16 בית חורון","geocoded":{"lat":32.0848635,"lng":34.811142}},{"address":"הרצליה 37 אצ~ל","geocoded":{"lat":32.1735168,"lng":34.804424}},{"address":"תל אביב - יפו 73 קבוץ גלויות","geocoded":{"lat":32.0502482,"lng":34.7726251}},{"address":"תל אביב - יפו 9 וילסון","geocoded":{"lat":32.0666343,"lng":34.7807642}},{"address":"תל אביב - יפו 14 אוגרית","geocoded":{"lat":32.1158115,"lng":34.8138209}},{"address":"הרצליה 84 שלוה","geocoded":{"lat":32.1714904,"lng":34.8101686}},{"address":"רמת גן 1 ארלוזורוב","geocoded":{"lat":32.0789032,"lng":34.8145067}},{"address":"הרצליה 13 סוקולוב","geocoded":{"lat":32.1672127,"lng":34.8399821}},{"address":"תל אביב - יפו 18 בן אביגדור","geocoded":{"lat":32.0671161,"lng":34.7894015}},{"address":"ראשון לציון 16 אלטלנה","geocoded":{"lat":31.99126589999999,"lng":34.7632107}},{"address":"תל אביב - יפו 52 חובבי ציון","geocoded":{"lat":32.0784019,"lng":34.7717199}},{"address":"תל אביב - יפו 10 קרליבך","geocoded":{"lat":32.0690133,"lng":34.7831631}},{"address":"רמת גן 1 היסמין רמת אפעל","geocoded":{"lat":32.0485408,"lng":34.8363484}},{"address":"תל אביב - יפו 9 נהרדעא","geocoded":{"lat":32.0826895,"lng":34.7866988}},{"address":"תל אביב - יפו 30 לבנדה","geocoded":{"lat":32.0563946,"lng":34.7829466}},{"address":"תל אביב - יפו 33 שטריקר","geocoded":{"lat":32.0946512,"lng":34.7879077}},{"address":"רמת גן 16 דרך אבא הלל","geocoded":{"lat":32.0860593,"lng":34.8055011}},{"address":"ראשון לציון 1 ארבל","geocoded":{"lat":31.9584746,"lng":34.7880878}},{"address":"הרצליה 18 גלגל הפלדה","geocoded":{"lat":32.1650778,"lng":34.80971359999999}},{"address":"רמת גן 76 שד ירושלים","geocoded":{"lat":32.0743692,"lng":34.8282897}},{"address":"רמת גן 82 שד ירושלים","geocoded":{"lat":32.0743433,"lng":34.8288264}},{"address":"ראשון לציון 29 הרב גוטמן צבי","geocoded":{"lat":31.9497274,"lng":34.8099786}},{"address":"תל אביב - יפו 77 מזא~ה","geocoded":{"lat":32.0649639,"lng":34.7817485}},{"address":"תל אביב - יפו 83 אבן גבירול","geocoded":{"lat":32.0842464,"lng":34.7813108}},{"address":"תל אביב - יפו 6 הבשן","geocoded":{"lat":32.0909117,"lng":34.78167}},{"address":"גבעתיים 76 שינקין","geocoded":{"lat":32.0752288,"lng":34.8159281}},{"address":"תל אביב - יפו 2 דרך בן צבי","geocoded":{"lat":32.0505784,"lng":34.7593084}},{"address":"תל אביב - יפו 50 דיזנגוף","geocoded":{"lat":32.0751081,"lng":34.7749424}},{"address":"תל אביב - יפו 24 פיארברג","geocoded":{"lat":32.0689652,"lng":34.7768198}},{"address":"רמת גן 3 שלם","geocoded":{"lat":32.0536993,"lng":34.8128833}},{"address":"חולון 29 הבנאי","geocoded":{"lat":32.0112469,"lng":34.8016902}},{"address":"תל אביב - יפו 148 דיזנגוף","geocoded":{"lat":32.0829799,"lng":34.7741283}},{"address":"גבעתיים 42 סירקין","geocoded":{"lat":32.0789384,"lng":34.81890509999999}},{"address":"תל אביב - יפו 8 לינקולן","geocoded":{"lat":32.0671223,"lng":34.7809526}},{"address":"תל אביב - יפו 8 חומה ומגדל","geocoded":{"lat":32.0620657,"lng":34.7859721}},{"address":"תל אביב - יפו 16 לסקוב חיים","geocoded":{"lat":32.0719481,"lng":34.7831847}},{"address":"תל אביב - יפו 31 הברזל","geocoded":{"lat":32.1104408,"lng":34.8411217}},{"address":"תל אביב - יפו 46 רציף הרברט סמואל","geocoded":{"lat":32.0720531,"lng":34.7646307}},{"address":"תל אביב - יפו 111 אבן גבירול","geocoded":{"lat":32.0870737,"lng":34.7819685}},{"address":"תל אביב - יפו 75 אבן גבירול","geocoded":{"lat":32.0835727,"lng":34.7812477}},{"address":"רמת גן 5 צבי","geocoded":{"lat":32.068424,"lng":34.824785}},{"address":"תל אביב - יפו 13 פייבל","geocoded":{"lat":32.0844313,"lng":34.79285}},{"address":"תל אביב - יפו 10 ברקוביץ","geocoded":{"lat":32.0781245,"lng":34.78586}},{"address":"ראשון לציון 5 גלוסקא","geocoded":{"lat":31.9930562,"lng":34.7528286}},{"address":"הרצליה 1 שד אבא אבן","geocoded":{"lat":32.1610242,"lng":34.8108185}},{"address":"תל אביב - יפו 7 בירנבוים","geocoded":{"lat":32.0927392,"lng":34.793206}},{"address":"תל אביב - יפו 82 שד נורדאו","geocoded":{"lat":32.09175,"lng":34.7811429}},{"address":"תל אביב - יפו 19 רמברנדט","geocoded":{"lat":32.0839403,"lng":34.7841896}},{"address":"תל אביב - יפו 13 רב אשי","geocoded":{"lat":32.1208878,"lng":34.7997177}},{"address":"תל אביב - יפו 34 אלנבי","geocoded":{"lat":32.0726982,"lng":34.7683116}},{"address":"תל אביב - יפו 68 אבן גבירול","geocoded":{"lat":32.0799634,"lng":34.7815659}},{"address":"תל אביב - יפו 119 הרצל","geocoded":{"lat":32.0525033,"lng":34.770376}},{"address":"תל אביב - יפו 5 יוחנן הגדי","geocoded":{"lat":32.0944473,"lng":34.7856177}},{"address":"תל אביב - יפו  אינשטיין 71/45","geocoded":{"lat":32.1133921,"lng":34.7997294}},{"address":"תל אביב - יפו 26 נמל יפו","geocoded":{"lat":32.0499021,"lng":34.7491194}},{"address":"תל אביב - יפו 11 שלומציון המלכה","geocoded":{"lat":32.0949226,"lng":34.785523}},{"address":"תל אביב - יפו 241 דיזנגוף","geocoded":{"lat":32.0917603,"lng":34.7759896}},{"address":"רמת גן 4 החייל האלמוני","geocoded":{"lat":32.0861983,"lng":34.8171101}},{"address":"רמת גן 48 הרא~ה","geocoded":{"lat":32.0834577,"lng":34.8230888}},{"address":"חולון 9 המשביר","geocoded":{"lat":32.0135763,"lng":34.8036436}},{"address":"הרצליה 4 הסדנאות","geocoded":{"lat":32.16214,"lng":34.8067931}},{"address":"תל אביב - יפו 46 בזל","geocoded":{"lat":32.0896536,"lng":34.7806982}},{"address":"תל אביב - יפו 44 טאגור רבינדרנארט","geocoded":{"lat":32.1176428,"lng":34.7991383}},{"address":"רמת גן 16 רימלט אלימלך","geocoded":{"lat":32.068424,"lng":34.824785}},{"address":"תל אביב - יפו 9 בוני העיר","geocoded":{"lat":32.1010948,"lng":34.7833557}},{"address":"רמת גן 23 ז'בוטינסקי","geocoded":{"lat":32.0737938,"lng":34.8107322}},{"address":"תל אביב - יפו 120 אלנבי","geocoded":{"lat":32.0631413,"lng":34.7730154}},{"address":"תל אביב - יפו 1 הלסינקי","geocoded":{"lat":32.0833805,"lng":34.7916634}},{"address":"תל אביב - יפו 120 אלון יגאל","geocoded":{"lat":32.073773,"lng":34.7954404}},{"address":"הרצליה 18 שד אבא אבן","geocoded":{"lat":32.162678,"lng":34.8067698}},{"address":"הרצליה 3 החושלים","geocoded":{"lat":32.158364,"lng":34.8069764}},{"address":"תל אביב - יפו 17 עלומים","geocoded":{"lat":32.1208158,"lng":34.8071949}},{"address":"תל אביב - יפו 27 המרד","geocoded":{"lat":32.0633386,"lng":34.7629035}},{"address":"תל אביב - יפו 126 דרך הטייסים","geocoded":{"lat":32.0459365,"lng":34.8135274}},{"address":"תל אביב - יפו 8 מיקוניס שמואל","geocoded":{"lat":32.0598161,"lng":34.7856011}},{"address":"ראשון לציון 44 ארלוזורוב","geocoded":{"lat":31.9693887,"lng":34.7934879}},{"address":"תל אביב - יפו 15 יבנה","geocoded":{"lat":32.0653138,"lng":34.7732611}},{"address":"תל אביב - יפו 38 שמעון התרסי","geocoded":{"lat":32.0947349,"lng":34.7829741}},{"address":"תל אביב - יפו 114 ארלוזורוב","geocoded":{"lat":32.0846484,"lng":34.7831847}},{"address":"תל אביב - יפו 58 שטריקר","geocoded":{"lat":32.0943785,"lng":34.7880609}},{"address":"תל אביב - יפו 9 דרך יפו","geocoded":{"lat":32.0603387,"lng":34.7693117}},{"address":"הרצליה 14 שנקר אריה","geocoded":{"lat":32.1590104,"lng":34.8085517}},{"address":"רמת גן 3 קדמה","geocoded":{"lat":32.0741234,"lng":34.8266053}},{"address":"תל אביב - יפו 82 דרך בגין","geocoded":{"lat":32.0676773,"lng":34.7860913}},{"address":"הרצליה 6 בית~ר","geocoded":{"lat":32.1596077,"lng":34.8491856}},{"address":"חולון 17 רבי עקיבא","geocoded":{"lat":32.0138163,"lng":34.7898054}},{"address":"תל אביב - יפו 74 שדרות רוטשילד","geocoded":{"lat":32.0651235,"lng":34.7768752}},{"address":"תל אביב - יפו 52 המסגר","geocoded":{"lat":32.0663195,"lng":34.7867257}},{"address":"תל אביב - יפו 26 פרוג","geocoded":{"lat":32.0805602,"lng":34.7731161}},{"address":"ראשון לציון 3 ישראלי שמעון","geocoded":{"lat":31.9907055,"lng":34.7516635}},{"address":"תל אביב - יפו 28 רמברנדט","geocoded":{"lat":32.0835329,"lng":34.7839379}},{"address":"תל אביב - יפו 42 השופטים","geocoded":{"lat":32.0762051,"lng":34.7829154}},{"address":"חולון 1 מקוה ישראל","geocoded":{"lat":32.0287421,"lng":34.7748843}},{"address":"ראשון לציון 21 איתן","geocoded":{"lat":31.9930508,"lng":34.7654909}},{"address":"רמת גן 36 אלכסנדרוני","geocoded":{"lat":32.0546409,"lng":34.8155387}},{"address":"תל אביב - יפו 18 שץ גגה גרשון","geocoded":{"lat":32.0832019,"lng":34.775299}},{"address":"תל אביב - יפו 17 יצחק שדה","geocoded":{"lat":32.0657521,"lng":34.7860322}},{"address":"תל אביב - יפו 7 הדף היומי","geocoded":{"lat":32.1152163,"lng":34.8406523}},{"address":"תל אביב - יפו 125 דרך בגין","geocoded":{"lat":32.0729837,"lng":34.7891528}},{"address":"תל אביב - יפו 6 וילסון","geocoded":{"lat":32.0666732,"lng":34.7811134}},{"address":"רמת גן 26 הצלע","geocoded":{"lat":32.0949244,"lng":34.8211257}},{"address":"ראשון לציון 5 אינשטיין","geocoded":{"lat":31.9660429,"lng":34.7919183}},{"address":"תל אביב - יפו 26 ריב~ל","geocoded":{"lat":32.0622227,"lng":34.784134}},{"address":"תל אביב - יפו 64 פנקס","geocoded":{"lat":32.0909475,"lng":34.7932715}},{"address":"תל אביב - יפו 16 קלונימוס","geocoded":{"lat":32.0876348,"lng":34.7808104}},{"address":"תל אביב - יפו 1 רבינא","geocoded":{"lat":32.1217178,"lng":34.7957503}},{"address":"רמת גן 33 מעלה הבנים","geocoded":{"lat":32.0776032,"lng":34.82094740000001}},{"address":"חולון 159 שד ירושלים","geocoded":{"lat":32.0046652,"lng":34.8008014}},{"address":"תל אביב - יפו 155 אלון יגאל","geocoded":{"lat":32.0783077,"lng":34.7971899}},{"address":"חולון 10 אבידן שמעון","geocoded":{"lat":32.0014502,"lng":34.7726001}},{"address":"גבעתיים 17 בן ציון ישראלי","geocoded":{"lat":32.0777384,"lng":34.8115492}},{"address":"תל אביב - יפו 7 דבורה הנביאה","geocoded":{"lat":32.1191,"lng":34.8264112}},{"address":"תל אביב - יפו 26 רדינג","geocoded":{"lat":32.1072008,"lng":34.7952661}},{"address":"תל אביב - יפו 135 ויצמן","geocoded":{"lat":32.0957248,"lng":34.79023220000001}},{"address":"תל אביב - יפו 18 אהבת ציון","geocoded":{"lat":32.0893274,"lng":34.7939401}},{"address":"חולון 15 הנפח","geocoded":{"lat":32.019352,"lng":34.7979552}},{"address":"תל אביב - יפו 124 דבורה הנביאה","geocoded":{"lat":32.1139246,"lng":34.8412928}},{"address":"רמת גן 10 הגאון אליהו","geocoded":{"lat":32.0732084,"lng":34.8297707}},{"address":"גבעתיים 13 תפוצות ישראל","geocoded":{"lat":32.0594613,"lng":34.8145916}},{"address":"הרצליה 25 הוז דב","geocoded":{"lat":32.1762591,"lng":34.8186475}},{"address":"תל אביב - יפו 5 אלוף מגן קלמן","geocoded":{"lat":32.070732,"lng":34.786781}},{"address":"תל אביב - יפו 6 הסוללים","geocoded":{"lat":32.0710761,"lng":34.7956328}},{"address":"הרצליה 7 אח~י דקר","geocoded":{"lat":32.1727778,"lng":34.8086248}},{"address":"תל אביב - יפו 2 השלושה","geocoded":{"lat":32.061711,"lng":34.788543}},{"address":"תל אביב - יפו 28 הארבעה","geocoded":{"lat":32.0702165,"lng":34.7863607}},{"address":"תל אביב - יפו 12 ערבי נחל","geocoded":{"lat":32.0788459,"lng":34.7996939}},{"address":"תל אביב - יפו 49 המסגר","geocoded":{"lat":32.0671045,"lng":34.7867971}},{"address":"תל אביב - יפו 4 סמילנסקי","geocoded":{"lat":32.0885918,"lng":34.791316}},{"address":"תל אביב - יפו 11 קובנר אבא","geocoded":{"lat":32.1015935,"lng":34.7842133}},{"address":"חולון 40 הבנאי","geocoded":{"lat":32.0119705,"lng":34.8020615}},{"address":"רמת גן 7 אלמוג רמת אפעל","geocoded":{"lat":32.047236,"lng":34.835859}},{"address":"תל אביב - יפו 101 דיזנגוף","geocoded":{"lat":32.0794782,"lng":34.7736785}},{"address":"תל אביב - יפו 15 ביירון","geocoded":{"lat":32.0838491,"lng":34.7725638}},{"address":"תל אביב - יפו 5 דרך השלום","geocoded":{"lat":32.0722313,"lng":34.795847}},{"address":"תל אביב - יפו 6 הדסה","geocoded":{"lat":32.0827654,"lng":34.7799721}},{"address":"הרצליה 2 נחמה הנדל","geocoded":{"lat":32.173397,"lng":34.82016900000001}},{"address":"תל אביב - יפו 170 דרך נמיר מרדכי","geocoded":{"lat":32.112016,"lng":34.792519}},{"address":"תל אביב - יפו 6 ברנשטין כהן","geocoded":{"lat":32.074479,"lng":34.7709385}},{"address":"רמת גן 199 הרא~ה","geocoded":{"lat":32.0707756,"lng":34.8249251}},{"address":"תל אביב - יפו 28 רמז דוד","geocoded":{"lat":32.0629602,"lng":34.8575233}},{"address":"תל אביב - יפו 5 דרויאנוב","geocoded":{"lat":32.0768982,"lng":34.7719282}},{"address":"תל אביב - יפו 43 יהודה הלוי","geocoded":{"lat":32.0619237,"lng":34.7728956}},{"address":"תל אביב - יפו 8 לבונטין","geocoded":{"lat":32.0615589,"lng":34.7747689}},{"address":"תל אביב - יפו 6 המנוע","geocoded":{"lat":32.049918,"lng":34.7650161}},{"address":"תל אביב - יפו 10 זרובבל יעקב","geocoded":{"lat":32.0743651,"lng":34.8842914}},{"address":"תל אביב - יפו 2 אבישי","geocoded":{"lat":32.1242861,"lng":34.83506089999999}},{"address":"תל אביב - יפו 16 חומה ומגדל","geocoded":{"lat":32.0627139,"lng":34.7862871}},{"address":"תל אביב - יפו 26 בן יהודה","geocoded":{"lat":32.0756904,"lng":34.768191}},{"address":"חולון 30 המלאכה","geocoded":{"lat":32.0151441,"lng":34.7988185}},{"address":"תל אביב - יפו 96 החשמונאים","geocoded":{"lat":32.0691568,"lng":34.7855231}},{"address":"רמת גן 7 דרך בגין מנחם","geocoded":{"lat":32.0852746,"lng":34.79995}},{"address":"הרצליה 32 משכית","geocoded":{"lat":32.162414,"lng":34.8096561}},{"address":"תל אביב - יפו 17 מוסינזון","geocoded":{"lat":32.0893409,"lng":34.7832613}},{"address":"תל אביב - יפו 14 אופנהיימר","geocoded":{"lat":32.1205569,"lng":34.8008828}},{"address":"רמת גן 14 דרך אבא הלל","geocoded":{"lat":32.085679,"lng":34.8051302}},{"address":"תל אביב - יפו 14 בויאר אברהם","geocoded":{"lat":32.1230309,"lng":34.7963504}},{"address":"תל אביב - יפו 10 הוברמן","geocoded":{"lat":32.0723946,"lng":34.7805092}},{"address":"רמת גן 3 ז'בוטינסקי","geocoded":{"lat":32.0738056,"lng":34.8090377}},{"address":"הרצליה 8 החושלים","geocoded":{"lat":32.1590119,"lng":34.8064331}},{"address":"תל אביב - יפו 8 אויסטרך דויד","geocoded":{"lat":32.1171162,"lng":34.7865544}},{"address":"תל אביב - יפו 42 שדרות רוטשילד","geocoded":{"lat":32.0635043,"lng":34.7742951}},{"address":"הרצליה 16 צמרות","geocoded":{"lat":32.1503204,"lng":34.8466413}},{"address":"תל אביב - יפו 3 שד' רוקח","geocoded":{"lat":32.0985318,"lng":34.7798191}},{"address":"תל אביב - יפו 8 טברסקי","geocoded":{"lat":32.0657602,"lng":34.7892405}},{"address":"תל אביב - יפו 29 פלורנטין","geocoded":{"lat":32.0563476,"lng":34.7697939}},{"address":"הרצליה 46 המגינים","geocoded":{"lat":32.173297,"lng":34.8097491}},{"address":"תל אביב - יפו 18 שדרות רוטשילד","geocoded":{"lat":32.0629104,"lng":34.7711743}},{"address":"רמת גן 14 דרך בגין מנחם","geocoded":{"lat":32.0855248,"lng":34.80034850000001}},{"address":"רמת גן 6 הפרסה","geocoded":{"lat":32.0856164,"lng":34.8176339}},{"address":"ראשון לציון 6 אודם","geocoded":{"lat":31.9512433,"lng":34.9315856}},{"address":"תל אביב - יפו 2 מלאכי","geocoded":{"lat":32.0928406,"lng":34.7766928}},{"address":"הרצליה 18 שנקר אריה","geocoded":{"lat":32.1578932,"lng":34.80788630000001}},{"address":"תל אביב - יפו 7 כיסופים","geocoded":{"lat":32.1170083,"lng":34.8307887}},{"address":"תל אביב - יפו 3 הפלך","geocoded":{"lat":32.0505726,"lng":34.7656141}},{"address":"תל אביב - יפו 42 הא באייר","geocoded":{"lat":32.0750419,"lng":34.7819586}},{"address":"תל אביב - יפו 8 אבן סרוק","geocoded":{"lat":32.0721284,"lng":34.7820678}},{"address":"תל אביב - יפו 33 מונטיפיורי","geocoded":{"lat":32.0657524,"lng":34.7733953}},{"address":"תל אביב - יפו 29 שטריקר","geocoded":{"lat":32.0944324,"lng":34.7879293}},{"address":"תל אביב - יפו 39 שד' שאול המלך","geocoded":{"lat":32.0776645,"lng":34.7906623}},{"address":"תל אביב - יפו 2 רב אשי","geocoded":{"lat":32.1210551,"lng":34.7960594}},{"address":"תל אביב - יפו 188 הרצל","geocoded":{"lat":32.0458312,"lng":34.7678976}},{"address":"תל אביב - יפו 41 שרת משה","geocoded":{"lat":32.0887429,"lng":34.7892225}},{"address":"הרצליה 28 סירקין","geocoded":{"lat":32.1663183,"lng":34.8465945}},{"address":"תל אביב - יפו 2 לבנדה","geocoded":{"lat":32.053747,"lng":34.782049}},{"address":"תל אביב - יפו 9 בורלא יהודה","geocoded":{"lat":32.1059702,"lng":34.7906074}},{"address":"תל אביב - יפו 10 שד' יהודית","geocoded":{"lat":32.0700704,"lng":34.7895198}},{"address":"חולון 3 פרנק אנה","geocoded":{"lat":32.015833,"lng":34.787384}},{"address":"תל אביב - יפו 11 ארנון","geocoded":{"lat":32.0842313,"lng":34.7702883}},{"address":"רמת גן 15 דרך אבא הלל","geocoded":{"lat":32.085569,"lng":34.803969}},{"address":"תל אביב - יפו 26 סוטין","geocoded":{"lat":32.0817525,"lng":34.7866609}},{"address":"תל אביב - יפו 14 האומנים","geocoded":{"lat":32.0715568,"lng":34.7950715}},{"address":"תל אביב - יפו 53 פרישמן","geocoded":{"lat":32.0797821,"lng":34.7759589}},{"address":"תל אביב - יפו 124 אצ~ל","geocoded":{"lat":32.04781000000001,"lng":34.7937921}},{"address":"תל אביב - יפו 52 גולומב","geocoded":{"lat":32.0533397,"lng":34.7830054}},{"address":"תל אביב - יפו 65 פנקס","geocoded":{"lat":32.0912811,"lng":34.7933735}},{"address":"חולון 6 היובל","geocoded":{"lat":32.0245209,"lng":34.7940369}},{"address":"תל אביב - יפו 6 הנחושת","geocoded":{"lat":32.1097786,"lng":34.8392628}},{"address":"ראשון לציון 18 ז'בוטינסקי","geocoded":{"lat":31.9631875,"lng":34.8002654}},{"address":"תל אביב - יפו 3 פריש דניאל","geocoded":{"lat":32.0744835,"lng":34.7831081}},{"address":"תל אביב - יפו 20 החרש","geocoded":{"lat":32.058481,"lng":34.7843509}},{"address":"תל אביב - יפו 18 ולנברג ראול","geocoded":{"lat":32.1096992,"lng":34.8373336}},{"address":"תל אביב - יפו 2 פינסקר","geocoded":{"lat":32.0728531,"lng":34.7690571}},{"address":"תל אביב - יפו 52 פנקס","geocoded":{"lat":32.0908191,"lng":34.7898344}},{"address":"תל אביב - יפו 10 הצפירה","geocoded":{"lat":32.0601939,"lng":34.7832141}},{"address":"רמת גן 6 הרקון","geocoded":{"lat":32.084996,"lng":34.800801}},{"address":"תל אביב - יפו 4 קרליבך","geocoded":{"lat":32.0678229,"lng":34.7834787}},{"address":"תל אביב - יפו 12 כיסופים","geocoded":{"lat":32.1174832,"lng":34.830457}},{"address":"תל אביב - יפו 9 ויטלה מאוריציו","geocoded":{"lat":32.102207,"lng":34.791842}},{"address":"רמת גן 2 הגאון אליהו","geocoded":{"lat":32.0726524,"lng":34.8291028}},{"address":"ראשון לציון 3 פלטין נפתלי","geocoded":{"lat":31.988759,"lng":34.7717812}},{"address":"תל אביב - יפו 4 רכטר זאב","geocoded":{"lat":32.1149347,"lng":34.8301896}},{"address":"ראשון לציון 19 וינברג אברהם","geocoded":{"lat":31.9771969,"lng":34.8008862}},{"address":"רמת גן 3 היצירה","geocoded":{"lat":32.0848734,"lng":34.8025955}},{"address":"חולון 3 הנשיאים","geocoded":{"lat":32.0222605,"lng":34.7743383}},{"address":"הרצליה 15 משכית","geocoded":{"lat":32.1643423,"lng":34.8112311}},{"address":"רמת גן 38 תובל","geocoded":{"lat":32.0857822,"lng":34.8023902}},{"address":"הרצליה 15 שד אבא אבן","geocoded":{"lat":32.1627046,"lng":34.8073454}},{"address":"הרצליה 3 הסדנאות","geocoded":{"lat":32.1618566,"lng":34.8072193}},{"address":"תל אביב - יפו 23 דרך בגין","geocoded":{"lat":32.0637954,"lng":34.7800013}},{"address":"הרצליה 8 צמרות","geocoded":{"lat":32.1509515,"lng":34.845156}},{"address":"תל אביב - יפו 6 קויפמן יחזקאל","geocoded":{"lat":32.0640628,"lng":34.7625084}},{"address":"תל אביב - יפו 5 אלוני ניסים","geocoded":{"lat":32.0881477,"lng":34.7964711}},{"address":"תל אביב - יפו 32 המסגר","geocoded":{"lat":32.0633155,"lng":34.7856743}},{"address":"תל אביב - יפו 14 דרור","geocoded":{"lat":32.05029950000001,"lng":34.7551269}},{"address":"חולון 24 גורדון","geocoded":{"lat":32.015833,"lng":34.787384}},{"address":"תל אביב - יפו 11 זימן","geocoded":{"lat":32.0772172,"lng":34.8004159}},{"address":"תל אביב - יפו 27 לילינבלום","geocoded":{"lat":32.0624052,"lng":34.7711191}},{"address":"תל אביב - יפו 14 שדרות רוטשילד","geocoded":{"lat":32.062815,"lng":34.7709504}},{"address":"תל אביב - יפו 92 אבן גבירול","geocoded":{"lat":32.0827457,"lng":34.78154490000001}},{"address":"תל אביב - יפו 43 פרישמן","geocoded":{"lat":32.0798701,"lng":34.7743713}},{"address":"תל אביב - יפו 67 אחד העם","geocoded":{"lat":32.0681425,"lng":34.7769618}},{"address":"רמת גן 9 תובל","geocoded":{"lat":32.0874046,"lng":34.8038028}},{"address":"תל אביב - יפו 29 יצחק שדה","geocoded":{"lat":32.0652205,"lng":34.7878525}},{"address":"תל אביב - יפו 17 לבונטין","geocoded":{"lat":32.0622411,"lng":34.7760085}},{"address":"תל אביב - יפו 16 בית צורי אליהו","geocoded":{"lat":32.1220727,"lng":34.8000286}},{"address":"תל אביב - יפו 133 שדרות רוטשילד","geocoded":{"lat":32.0714557,"lng":34.7788278}},{"address":"תל אביב - יפו 52 שטריקר","geocoded":{"lat":32.0940006,"lng":34.7880924}},{"address":"תל אביב - יפו 42 ויסבורג חיים","geocoded":{"lat":32.122269,"lng":34.82887820000001}},{"address":"תל אביב - יפו 6 מודיליאני","geocoded":{"lat":32.0808083,"lng":34.7827407}},{"address":"חולון 9 ויצמן","geocoded":{"lat":32.0215787,"lng":34.7732264}},{"address":"רמת גן 32 תובל","geocoded":{"lat":32.0864453,"lng":34.8029342}},{"address":"רמת גן 69 מנדס","geocoded":{"lat":32.056558,"lng":34.8503015}},{"address":"תל אביב - יפו 83 גורדון י ל","geocoded":{"lat":32.0809212,"lng":34.7791869}},{"address":"חולון 48 סוקולוב","geocoded":{"lat":32.0223823,"lng":34.7744698}},{"address":"תל אביב - יפו 11 קרליבך","geocoded":{"lat":32.067223,"lng":34.7832588}},{"address":"תל אביב - יפו 22 אהרון דוד גורדון","geocoded":{"lat":32.0873104,"lng":34.7718832}},{"address":"תל אביב - יפו 98 אלון יגאל","geocoded":{"lat":32.07003520000001,"lng":34.7942584}},{"address":"גבעתיים 250 דרך בן גוריון דוד","geocoded":{"lat":32.0669623,"lng":34.816302}},{"address":"ראשון לציון 46 דרך המכבים","geocoded":{"lat":31.9808342,"lng":34.8096935}},{"address":"תל אביב - יפו 43 יהודה הנשיא","geocoded":{"lat":32.1207145,"lng":34.7955248}},{"address":"תל אביב - יפו 4 הרכבת","geocoded":{"lat":32.0628812,"lng":34.7755798}},{"address":"רמת גן 33 שרת משה","geocoded":{"lat":32.0875295,"lng":34.8171995}},{"address":"תל אביב - יפו 28 ארבע ארצות","geocoded":{"lat":32.0898967,"lng":34.7787495}},{"address":"רמת גן 62 קריניצי","geocoded":{"lat":32.0829456,"lng":34.8195102}},{"address":"ראשון לציון 11 לוי משה","geocoded":{"lat":31.9890412,"lng":34.77390949999999}},{"address":"תל אביב - יפו 25 הברזל","geocoded":{"lat":32.1095277,"lng":34.8400878}},{"address":"חולון 1 הפלד","geocoded":{"lat":32.0250206,"lng":34.7946698}},{"address":"תל אביב - יפו 16 אשכול לוי","geocoded":{"lat":32.1014527,"lng":34.78994}},{"address":"חולון 25 המשביר","geocoded":{"lat":32.0120774,"lng":34.8070801}},{"address":"תל אביב - יפו 6 חכים אליהו","geocoded":{"lat":32.125737,"lng":34.8011552}},{"address":"ראשון לציון 95 רוטשילד","geocoded":{"lat":31.9641241,"lng":34.7950763}},{"address":"ראשון לציון 45 רוטשילד","geocoded":{"lat":31.9635484,"lng":34.8014356}},{"address":"ראשון לציון 28 שרת משה","geocoded":{"lat":31.9933613,"lng":34.7544499}},{"address":"ראשון לציון 4 הרב גרופי שלום","geocoded":{"lat":31.990757,"lng":34.755684}},{"address":"ראשון לציון 3 שביט","geocoded":{"lat":31.9730015,"lng":34.7925013}},{"address":"תל אביב - יפו 87 בן יהודה","geocoded":{"lat":32.082431,"lng":34.7710127}},{"address":"תל אביב - יפו 37 דיזנגוף","geocoded":{"lat":32.0744858,"lng":34.7767276}},{"address":"רמת גן 47 המרגנית","geocoded":{"lat":32.0929956,"lng":34.8097828}},{"address":"תל אביב - יפו 5 תובל","geocoded":{"lat":32.0702602,"lng":34.7949449}},{"address":"תל אביב - יפו 6 עמיחי יהודה","geocoded":{"lat":32.1091482,"lng":34.7865504}},{"address":"הרצליה 71 דוד המלך","geocoded":{"lat":32.1726928,"lng":34.8124372}},{"address":"ראשון לציון 22 הירדן","geocoded":{"lat":31.9613197,"lng":34.7899627}},{"address":"תל אביב - יפו 62 סשא ארגוב","geocoded":{"lat":32.126178,"lng":34.8360438}},{"address":"תל אביב - יפו 27 אחימאיר אבא","geocoded":{"lat":32.1250898,"lng":34.803679}},{"address":"ראשון לציון 73 המלחים","geocoded":{"lat":31.9873555,"lng":34.7833736}},{"address":"גבעתיים 8 קרן קימת לישראל","geocoded":{"lat":32.0789729,"lng":34.8056623}},{"address":"תל אביב - יפו 1 בן אב~י איתמר","geocoded":{"lat":32.0722403,"lng":34.7826438}},{"address":"רמת גן 166 הרא~ה","geocoded":{"lat":32.0727057,"lng":34.8246644}},{"address":"ראשון לציון 29 רש~י","geocoded":{"lat":31.9669426,"lng":34.8136581}},{"address":"רמת גן 4 אבן עזרא","geocoded":{"lat":32.0691532,"lng":34.831588}},{"address":"תל אביב - יפו 17 אורי צבי גרינברג","geocoded":{"lat":32.1309857,"lng":34.7940879}},{"address":"ראשון לציון 30 שמוטקין בנימין","geocoded":{"lat":31.9763052,"lng":34.8124038}},{"address":"ראשון לציון 34 בן אליעזר","geocoded":{"lat":31.9582253,"lng":34.7946684}},{"address":"תל אביב - יפו 52 אבן סינא","geocoded":{"lat":32.0461877,"lng":34.7491835}},{"address":"תל אביב - יפו 9 שיינקין","geocoded":{"lat":32.0697388,"lng":34.7714807}},{"address":"תל אביב - יפו 24 רמב~ם","geocoded":{"lat":32.0675197,"lng":34.770705}},{"address":"גבעתיים 34 סירקין","geocoded":{"lat":32.0792285,"lng":34.81769860000001}},{"address":"רמת גן 17 אמיר","geocoded":{"lat":32.068424,"lng":34.824785}},{"address":"הרצליה 2 התאנה","geocoded":{"lat":32.1886264,"lng":34.8138963}},{"address":"תל אביב - יפו 75 קבוץ גלויות","geocoded":{"lat":32.0498732,"lng":34.7731243}},{"address":"הרצליה 41 הבנים","geocoded":{"lat":32.162413,"lng":34.844675}},{"address":"תל אביב - יפו 22 פרוג","geocoded":{"lat":32.0802678,"lng":34.7731035}},{"address":"הרצליה 6 החושלים","geocoded":{"lat":32.1589089,"lng":34.8069316}},{"address":"הרצליה 19 שד אבא אבן","geocoded":{"lat":32.1631694,"lng":34.8067409}},{"address":"ראשון לציון 4 שד מנחם בגין","geocoded":{"lat":32.0045253,"lng":34.7686312}},{"address":"הרצליה 4 צמרות","geocoded":{"lat":32.1515416,"lng":34.8439615}},{"address":"רמת גן 99 ז'בוטינסקי","geocoded":{"lat":32.0730918,"lng":34.8172899}},{"address":"תל אביב - יפו 11 מונטיפיורי","geocoded":{"lat":32.0648893,"lng":34.7702565}},{"address":"תל אביב - יפו 104 שד' רוקח","geocoded":{"lat":32.1048173,"lng":34.812091}},{"address":"ראשון לציון 17 יהודה הלוי","geocoded":{"lat":31.96698589999999,"lng":34.808407}},{"address":"תל אביב - יפו 74 דרך בגין","geocoded":{"lat":32.066538,"lng":34.7846651}},{"address":"תל אביב - יפו 3 שדרות רוטשילד","geocoded":{"lat":32.0630027,"lng":34.7692988}},{"address":"תל אביב - יפו 27 אהבת ציון","geocoded":{"lat":32.0878211,"lng":34.7942556}},{"address":"תל אביב - יפו 8 אמיחי יהודה","geocoded":{"lat":32.109608,"lng":34.787136}},{"address":"תל אביב - יפו 55 דיזנגוף","geocoded":{"lat":32.0754236,"lng":34.7748328}},{"address":"רמת גן 32 ביאליק","geocoded":{"lat":32.0819423,"lng":34.814995}},{"address":"חולון 7 חצבה","geocoded":{"lat":32.006841,"lng":34.76216}},{"address":"רמת גן 40 חרות","geocoded":{"lat":32.0908103,"lng":34.81443030000001}},{"address":"תל אביב - יפו 17 קלוזנר","geocoded":{"lat":32.1133409,"lng":34.8070103}},{"address":"תל אביב - יפו 12 שמריהו לוין","geocoded":{"lat":32.0750525,"lng":34.7792205}},{"address":"הרצליה 8 משכית","geocoded":{"lat":32.1665615,"lng":34.8115137}},{"address":"חולון 10 רחל","geocoded":{"lat":32.015833,"lng":34.787384}},{"address":"תל אביב - יפו 70 הרכבת","geocoded":{"lat":32.0596834,"lng":34.7829431}},{"address":"תל אביב - יפו 4 התניא","geocoded":{"lat":32.0880048,"lng":34.775604}},{"address":"תל אביב - יפו 32 שלומציון המלכה","geocoded":{"lat":32.0948943,"lng":34.7879338}},{"address":"תל אביב - יפו 5 בית צורי אליהו","geocoded":{"lat":32.1226984,"lng":34.7993535}},{"address":"תל אביב - יפו 8 שטיבל","geocoded":{"lat":32.066506,"lng":34.788539}},{"address":"רמת גן 71 מנדס","geocoded":{"lat":32.05695060000001,"lng":34.8500428}},{"address":"רמת גן 33 ז'בוטינסקי","geocoded":{"lat":32.0736413,"lng":34.811566}},{"address":"תל אביב - יפו 3 קלצ'קין","geocoded":{"lat":32.1182757,"lng":34.802008}},{"address":"רמת גן 8 תע~ש","geocoded":{"lat":32.068424,"lng":34.824785}},{"address":"ראשון לציון 10 עין הקורא","geocoded":{"lat":31.9663443,"lng":34.8036574}},{"address":"תל אביב - יפו 9 המסגר","geocoded":{"lat":32.0621372,"lng":34.7846265}},{"address":"רמת גן 12 צבי","geocoded":{"lat":32.0814279,"lng":34.8024206}},{"address":"תל אביב - יפו 119 שדרות רוטשילד","geocoded":{"lat":32.0700328,"lng":34.7783929}},{"address":"תל אביב - יפו 28 בורלא יהודה","geocoded":{"lat":32.1082053,"lng":34.7907945}},{"address":"תל אביב - יפו 40 טאגור רבינדרנארט","geocoded":{"lat":32.1169609,"lng":34.7980645}},{"address":"תל אביב - יפו 167 הירקון","geocoded":{"lat":32.0856401,"lng":34.7700966}},{"address":"תל אביב - יפו 18 אשכול לוי","geocoded":{"lat":32.1026289,"lng":34.7893266}},{"address":"הרצליה 27 לח~י","geocoded":{"lat":32.1739831,"lng":34.8057269}},{"address":"הרצליה 61 גולומב אליהו","geocoded":{"lat":32.1739445,"lng":34.8479452}},{"address":"רמת גן 1 סמ היסמין","geocoded":{"lat":32.0478016,"lng":34.8372712}},{"address":"גבעתיים 21 יבניאלי","geocoded":{"lat":32.072176,"lng":34.808871}},{"address":"רמת גן 11 תובל","geocoded":{"lat":32.0870712,"lng":34.8039039}},{"address":"תל אביב - יפו 28 יבנה","geocoded":{"lat":32.0646329,"lng":34.7733647}},{"address":"חולון 0 הר הצופים","geocoded":{"lat":32.00671,"lng":34.7931878}},{"address":"תל אביב - יפו 31 יבנה","geocoded":{"lat":32.0630924,"lng":34.7742476}},{"address":"רמת גן 134 ז'בוטינסקי","geocoded":{"lat":32.0730074,"lng":34.8171617}},{"address":"ראשון לציון 1 אצ~ל","geocoded":{"lat":31.98782469999999,"lng":34.7680538}},{"address":"תל אביב - יפו 30 ענתות","geocoded":{"lat":32.1251853,"lng":34.8296699}},{"address":"רמת גן 33 קריניצי","geocoded":{"lat":32.0807702,"lng":34.8180201}},{"address":"רמת גן 6 בדנר","geocoded":{"lat":32.0879878,"lng":34.8114602}},{"address":"חולון 36 המרכבה","geocoded":{"lat":32.01503,"lng":34.808327}},{"address":"תל אביב - יפו 24 ריב~ל","geocoded":{"lat":32.0624355,"lng":34.7837482}},{"address":"תל אביב - יפו 18 ויצמן","geocoded":{"lat":32.081768,"lng":34.7892247}},{"address":"תל אביב - יפו 10 רוממה","geocoded":{"lat":32.1198027,"lng":34.8245393}},{"address":"תל אביב - יפו 14 שד' דוד המלך","geocoded":{"lat":32.0800141,"lng":34.7830429}},{"address":"תל אביב - יפו 52 דרך בגין","geocoded":{"lat":32.063811,"lng":34.78154490000001}},{"address":"תל אביב - יפו 93 לבנון חיים","geocoded":{"lat":32.1200743,"lng":34.8016238}},{"address":"גבעתיים 13 סירקין","geocoded":{"lat":32.0780044,"lng":34.8146964}},{"address":"תל אביב - יפו 4 מילוא יוסף","geocoded":{"lat":32.1222445,"lng":34.8118203}},{"address":"תל אביב - יפו 1 מרכז עזריאלי","geocoded":{"lat":32.0740769,"lng":34.7922028}},{"address":"תל אביב - יפו 19 נמל תל אביב","geocoded":{"lat":32.1008021,"lng":34.7750717}},{"address":"רמת גן 12 מגדים","geocoded":{"lat":32.0883373,"lng":34.8219594}},{"address":"רמת גן 12 רימלט אלימלך","geocoded":{"lat":32.068424,"lng":34.824785}},{"address":"תל אביב - יפו 72 שרת משה","geocoded":{"lat":32.0873438,"lng":34.7925048}},{"address":"תל אביב - יפו 3 כהנשטם","geocoded":{"lat":32.0895364,"lng":34.7869964}},{"address":"תל אביב - יפו 12 יד חרוצים","geocoded":{"lat":32.0616901,"lng":34.7828154}},{"address":"תל אביב - יפו 6 מנדלי מוכר ספרים","geocoded":{"lat":32.0790033,"lng":34.7685375}},{"address":"רמת גן 12 המיתר","geocoded":{"lat":32.0820184,"lng":34.8210414}},{"address":"ראשון לציון 28 אלתרמן","geocoded":{"lat":31.975048,"lng":34.7692025}},{"address":"חולון 5 הנגר","geocoded":{"lat":32.0210876,"lng":34.796936}},{"address":"תל אביב - יפו 60 אחד העם","geocoded":{"lat":32.0647311,"lng":34.7749208}},{"address":"תל אביב - יפו 66 מרדכי (מוטה) גור","geocoded":{"lat":32.0852999,"lng":34.78176759999999}},{"address":"תל אביב - יפו 46 ארלוזורוב","geocoded":{"lat":32.0864447,"lng":34.7760906}},{"address":"תל אביב - יפו 12 קרליבך","geocoded":{"lat":32.0699421,"lng":34.7829489}},{"address":"ראשון לציון 3 גינזבורג","geocoded":{"lat":31.9912241,"lng":34.7684182}},{"address":"תל אביב - יפו 121 דבורה הנביאה","geocoded":{"lat":32.1135286,"lng":34.8432083}},{"address":"רמת גן 2 נץ","geocoded":{"lat":32.068424,"lng":34.824785}},{"address":"תל אביב - יפו 24 סעדיה גאון","geocoded":{"lat":32.0682109,"lng":34.7823305}},{"address":"הרצליה 17 נורדאו","geocoded":{"lat":32.1691387,"lng":34.8154772}},{"address":"תל אביב - יפו 34 הנביאים","geocoded":{"lat":32.075469,"lng":34.7812362}},{"address":"ראשון לציון 15 הירשפלד","geocoded":{"lat":31.9581972,"lng":34.7987177}},{"address":"חולון 17 תמנע","geocoded":{"lat":32.0241881,"lng":34.7993836}},{"address":"תל אביב - יפו 2 ויצמן","geocoded":{"lat":32.0775668,"lng":34.7891393}},{"address":"רמת גן 4 כף גימל","geocoded":{"lat":32.068424,"lng":34.824785}},{"address":"תל אביב - יפו 17 אלוני ניסים","geocoded":{"lat":32.0900077,"lng":34.7963392}},{"address":"רמת גן 2 דרך בן גוריון דוד","geocoded":{"lat":32.0958372,"lng":34.8215495}},{"address":"תל אביב - יפו 26 יערי מאיר","geocoded":{"lat":32.0999062,"lng":34.78860770000001}},{"address":"תל אביב - יפו 157 אלון יגאל","geocoded":{"lat":32.0786923,"lng":34.7972508}},{"address":"תל אביב - יפו 10 בית הלל","geocoded":{"lat":32.0694214,"lng":34.7898089}},{"address":"רמת גן 61 ז'בוטינסקי","geocoded":{"lat":32.0733851,"lng":34.8160747}},{"address":"תל אביב - יפו 25 עמק ברכה","geocoded":{"lat":32.076308,"lng":34.7989587}},{"address":"הרצליה 12 לוין שמעון זאב","geocoded":{"lat":32.1635952,"lng":34.8362306}},{"address":"תל אביב - יפו 25 המרד","geocoded":{"lat":32.0627763,"lng":34.7629012}},{"address":"תל אביב - יפו 3 אחוזת בית","geocoded":{"lat":32.0646509,"lng":34.7706403}},{"address":"תל אביב - יפו 6 שרירא גאון","geocoded":{"lat":32.0479952,"lng":34.7640108}},{"address":"ראשון לציון 27 העינב","geocoded":{"lat":31.9763635,"lng":34.80094}},{"address":"תל אביב - יפו 48 דרך בגין","geocoded":{"lat":32.0630657,"lng":34.780368}},{"address":"תל אביב - יפו 15 האחים מסלאויטה","geocoded":{"lat":32.0676063,"lng":34.7913571}},{"address":"ראשון לציון 3 מושביץ","geocoded":{"lat":31.9515386,"lng":34.7683812}},{"address":"תל אביב - יפו 6 אורי","geocoded":{"lat":32.0807765,"lng":34.7856011}},{"address":"תל אביב - יפו 78 שדרות רוטשילד","geocoded":{"lat":32.0654141,"lng":34.7771204}},{"address":"תל אביב - יפו 1 גבעת התחמושת","geocoded":{"lat":32.0725137,"lng":34.7943041}},{"address":"תל אביב - יפו 4 חביב אבשלום","geocoded":{"lat":32.1257542,"lng":34.7975528}},{"address":"תל אביב - יפו 25 זלטופולסקי","geocoded":{"lat":32.0892805,"lng":34.7727152}},{"address":"תל אביב - יפו 56 אבן גבירול","geocoded":{"lat":32.0786787,"lng":34.7814068}},{"address":"רמת גן 2 יעקב רוזן","geocoded":{"lat":32.068424,"lng":34.824785}},{"address":"תל אביב - יפו 3 הנחושת","geocoded":{"lat":32.1099275,"lng":34.8381351}},{"address":"תל אביב - יפו 16 שץ גגה גרשון","geocoded":{"lat":32.0832019,"lng":34.775299}},{"address":"תל אביב - יפו 2 קרמניצקי","geocoded":{"lat":32.0668,"lng":34.7936369}},{"address":"תל אביב - יפו 14 מודיליאני","geocoded":{"lat":32.0806665,"lng":34.7838966}},{"address":"תל אביב - יפו 73 ויצמן","geocoded":{"lat":32.0893797,"lng":34.79008779999999}},{"address":"רמת גן 9 כרמלי","geocoded":{"lat":32.0566879,"lng":34.813762}},{"address":"גבעתיים 14 דב","geocoded":{"lat":32.080803,"lng":34.801575}},{"address":"תל אביב - יפו 28 רופא המחתרות","geocoded":{"lat":32.1006574,"lng":34.7844181}},{"address":"ראשון לציון 2 אצ~ל","geocoded":{"lat":31.98873249999999,"lng":34.7682923}},{"address":"חולון 5 היובל","geocoded":{"lat":32.0244152,"lng":34.7940743}},{"address":"תל אביב - יפו 6 הכלנית","geocoded":{"lat":32.0692241,"lng":34.8016434}},{"address":"תל אביב - יפו 24 דרך בן צבי","geocoded":{"lat":32.0491919,"lng":34.7620559}},{"address":"תל אביב - יפו 8 גינוסר","geocoded":{"lat":32.074754,"lng":34.79491100000001}},{"address":"תל אביב - יפו 25 חיסין","geocoded":{"lat":32.0737707,"lng":34.7782209}},{"address":"תל אביב - יפו 90 החשמונאים","geocoded":{"lat":32.0693562,"lng":34.783847}},{"address":"חולון 40 פרופ' שור","geocoded":{"lat":32.0221138,"lng":34.7958031}},{"address":"תל אביב - יפו 29 המרד","geocoded":{"lat":32.0636052,"lng":34.763117}},{"address":"תל אביב - יפו 38 אחד העם","geocoded":{"lat":32.0641368,"lng":34.7725581}},{"address":"תל אביב - יפו 93 אחד העם","geocoded":{"lat":32.0712296,"lng":34.7780058}},{"address":"הרצליה 22 משכית","geocoded":{"lat":32.1638207,"lng":34.8105285}},{"address":"תל אביב - יפו 3 קשאני אליעזר","geocoded":{"lat":32.1250786,"lng":34.80469739999999}},{"address":"תל אביב - יפו 23 רבינוביץ שפ~ר","geocoded":{"lat":32.0672265,"lng":34.769256}},{"address":"תל אביב - יפו 20 שמיר","geocoded":{"lat":32.1181479,"lng":34.8045849}},{"address":"תל אביב - יפו 15 ארזי יהודה","geocoded":{"lat":32.1197846,"lng":34.8037843}},{"address":"תל אביב - יפו 32 בן יהודה","geocoded":{"lat":32.076317,"lng":34.7683587}},{"address":"חולון 12 הנגר","geocoded":{"lat":32.020918,"lng":34.7962197}},{"address":"תל אביב - יפו 78 הירקון","geocoded":{"lat":32.0767003,"lng":34.7674762}},{"address":"הרצליה 1 האוניברסיטה","geocoded":{"lat":32.162413,"lng":34.844675}},{"address":"תל אביב - יפו 43 מוסינזון יגאל","geocoded":{"lat":32.121139,"lng":34.818991}},{"address":"רמת גן 24 היצירה","geocoded":{"lat":32.0872374,"lng":34.8022306}},{"address":"תל אביב - יפו 23 הברזל","geocoded":{"lat":32.1091934,"lng":34.8397577}},{"address":"תל אביב - יפו 11 רוזאניס","geocoded":{"lat":32.1205531,"lng":34.8138165}},{"address":"תל אביב - יפו 10 בארי","geocoded":{"lat":32.0833295,"lng":34.7866025}},{"address":"הרצליה 2 זמנהוף","geocoded":{"lat":32.1797234,"lng":34.8170837}},{"address":"תל אביב - יפו 16 חיסין","geocoded":{"lat":32.0737328,"lng":34.7773511}},{"address":"תל אביב - יפו 36 ולנברג ראול","geocoded":{"lat":32.1154842,"lng":34.841494}},{"address":"תל אביב - יפו 25 קרליבך","geocoded":{"lat":32.0682887,"lng":34.7829257}},{"address":"תל אביב - יפו 3 תבואות הארץ","geocoded":{"lat":32.11162580000001,"lng":34.82736240000001}},{"address":"תל אביב - יפו 14 זמנהוף","geocoded":{"lat":32.0775419,"lng":34.7762849}},{"address":"תל אביב - יפו 7 לטריס","geocoded":{"lat":32.0768134,"lng":34.7808108}},{"address":"הרצליה 60 שד' אלי לנדאו","geocoded":{"lat":32.1716903,"lng":34.8006099}},{"address":"תל אביב - יפו 17 יהודה הנשיא","geocoded":{"lat":32.1168239,"lng":34.7948587}},{"address":"תל אביב - יפו 6 התנופה","geocoded":{"lat":32.0510168,"lng":34.7723374}},{"address":"תל אביב - יפו 42 אשכול לוי","geocoded":{"lat":32.1070759,"lng":34.7886947}},{"address":"הרצליה 12 שרת משה","geocoded":{"lat":32.1850491,"lng":34.8109157}},{"address":"תל אביב - יפו 4 וייס יעקב","geocoded":{"lat":32.1258863,"lng":34.8020849}},{"address":"תל אביב - יפו 10 ברלין אליהו","geocoded":{"lat":32.1246984,"lng":34.793202}},{"address":"הרצליה 18 הבעל שם טוב","geocoded":{"lat":32.1630593,"lng":34.8409864}},{"address":"תל אביב - יפו 7 ריב~ל","geocoded":{"lat":32.0629028,"lng":34.7822646}},{"address":"תל אביב - יפו 7 עמנואל הרומי","geocoded":{"lat":32.0864724,"lng":34.7808826}},{"address":"תל אביב - יפו 5 טברסקי","geocoded":{"lat":32.0653908,"lng":34.7888249}},{"address":"ראשון לציון 1 היוזמה","geocoded":{"lat":31.9519695,"lng":34.7707994}},{"address":"חולון 22 הבנאי","geocoded":{"lat":32.0150726,"lng":34.8042186}},{"address":"ראשון לציון 17 לישנסקי יוסף","geocoded":{"lat":31.992687,"lng":34.7668541}},{"address":"תל אביב - יפו 3 חיל המשמר","geocoded":{"lat":32.1217519,"lng":34.8042378}},{"address":"תל אביב - יפו 20 ביאליק","geocoded":{"lat":32.0726275,"lng":34.7707855}},{"address":"תל אביב - יפו 16 לסל","geocoded":{"lat":32.0857453,"lng":34.7716242}},{"address":"רמת גן 5 השורה","geocoded":{"lat":32.081926,"lng":34.8233274}},{"address":"תל אביב - יפו 4 חיסין","geocoded":{"lat":32.07444,"lng":34.776293}},{"address":"תל אביב - יפו 6 כרמי דב","geocoded":{"lat":32.1151003,"lng":34.8298935}},{"address":"תל אביב - יפו 144 דרך בגין","geocoded":{"lat":32.0768832,"lng":34.7929994}},{"address":"תל אביב - יפו 30 הארבעה","geocoded":{"lat":32.0701722,"lng":34.7865614}},{"address":"תל אביב - יפו 86 אלון יגאל","geocoded":{"lat":32.0666556,"lng":34.79297}},{"address":"תל אביב - יפו 10 פעמוני יוסף","geocoded":{"lat":32.0793735,"lng":34.7673335}},{"address":"חולון 26 המשביר","geocoded":{"lat":32.0120467,"lng":34.8067527}},{"address":"חולון 18 המרכבה","geocoded":{"lat":32.01503,"lng":34.808327}},{"address":"רמת גן 2 הרא~ה","geocoded":{"lat":32.083676,"lng":34.8162078}},{"address":"תל אביב - יפו 20 חיסין","geocoded":{"lat":32.073563,"lng":34.7777272}},{"address":"הרצליה 9 ברקת","geocoded":{"lat":32.1648293,"lng":34.8120975}},{"address":"ראשון לציון 5 פרימן יעקב","geocoded":{"lat":31.9762711,"lng":34.8104464}},{"address":"תל אביב - יפו 1 שבט שמעון","geocoded":{"lat":32.108058,"lng":34.804252}},{"address":"תל אביב - יפו 22 אילת","geocoded":{"lat":32.0577162,"lng":34.763619}},{"address":"רמת גן 17 שילה","geocoded":{"lat":32.0813678,"lng":34.8161883}},{"address":"הרצליה 12 אוסישקין","geocoded":{"lat":32.161155,"lng":34.8468143}},{"address":"תל אביב - יפו 15 גרוזנברג","geocoded":{"lat":32.0654479,"lng":34.7688966}},{"address":"תל אביב - יפו 19 דה וינצ'י לאונרדו","geocoded":{"lat":32.0763929,"lng":34.7685156}},{"address":"חולון 21 האורגים","geocoded":{"lat":32.0097977,"lng":34.8022414}},{"address":"תל אביב - יפו 40 בורלא יהודה","geocoded":{"lat":32.1102815,"lng":34.790733}},{"address":"רמת גן 1 שוהם","geocoded":{"lat":32.08482,"lng":34.8004792}},{"address":"ראשון לציון 31 לזרוב","geocoded":{"lat":31.9921759,"lng":34.7742951}},{"address":"תל אביב - יפו 89 לוינסקי","geocoded":{"lat":32.0582317,"lng":34.7765014}},{"address":"הרצליה 0 מחלף סירה","geocoded":{"lat":32.1604654,"lng":34.8112326}},{"address":"רמת גן 50 ביאליק","geocoded":{"lat":32.0841265,"lng":34.8140565}},{"address":"תל אביב - יפו 33 יעב~ץ","geocoded":{"lat":32.0652267,"lng":34.768601}},{"address":"רמת גן 34 יוסף צבי","geocoded":{"lat":32.0664053,"lng":34.8173535}},{"address":"תל אביב - יפו 24 ילין מור נתן","geocoded":{"lat":32.070945,"lng":34.7916646}},{"address":"רמת גן 8 רימלט אלימלך","geocoded":{"lat":32.068424,"lng":34.824785}},{"address":"תל אביב - יפו 108 אלון יגאל","geocoded":{"lat":32.0712291,"lng":34.794508}},{"address":"ראשון לציון 19 עין הקורא","geocoded":{"lat":31.9656414,"lng":34.8012076}},{"address":"גבעתיים 53 דרך השלום","geocoded":{"lat":32.066902,"lng":34.803277}},{"address":"תל אביב - יפו 84 דרך בן צבי","geocoded":{"lat":32.04191600000001,"lng":34.7718271}},{"address":"תל אביב - יפו 253 דיזנגוף","geocoded":{"lat":32.0932146,"lng":34.7763373}},{"address":"הרצליה 24 בן יהודה","geocoded":{"lat":32.1605893,"lng":34.8449764}},{"address":"תל אביב - יפו 34 הנוטר","geocoded":{"lat":32.1235604,"lng":34.8087874}},{"address":"תל אביב - יפו 8 נחלת יצחק","geocoded":{"lat":32.0749188,"lng":34.7967005}},{"address":"תל אביב - יפו 96 אלון יגאל","geocoded":{"lat":32.0683493,"lng":34.7937575}},{"address":"חולון 26 הרוקמים","geocoded":{"lat":32.0076095,"lng":34.8010583}},{"address":"תל אביב - יפו 2 קפלן","geocoded":{"lat":32.0733456,"lng":34.78202479999999}},{"address":"תל אביב - יפו 28 פיליכובסקי","geocoded":{"lat":32.11656320000001,"lng":34.8005429}},{"address":"ראשון לציון 9 רוז'נסקי מרדכי","geocoded":{"lat":31.9864243,"lng":34.7721747}},{"address":"תל אביב - יפו 22 רענן","geocoded":{"lat":32.0591495,"lng":34.7689071}},{"address":"רמת גן 11 תדהר","geocoded":{"lat":32.0575899,"lng":34.8267814}},{"address":"תל אביב - יפו 38 שדרות רוטשילד","geocoded":{"lat":32.0633813,"lng":34.7736909}},{"address":"תל אביב - יפו 12 בית עובד","geocoded":{"lat":32.06403510000001,"lng":34.787935}},{"address":"תל אביב - יפו 16 אהוד","geocoded":{"lat":32.1232003,"lng":34.8333729}},{"address":"רמת גן 18 הבנים כפר אז~ר","geocoded":{"lat":32.0523565,"lng":34.8387454}},{"address":"חולון 4 בר כוכבא","geocoded":{"lat":32.0133788,"lng":34.7893378}},{"address":"הרצליה 1 משכית","geocoded":{"lat":32.1674785,"lng":34.8117389}},{"address":"ראשון לציון 3 רמות","geocoded":{"lat":31.982267,"lng":34.761021}},{"address":"תל אביב - יפו 50 המסגר","geocoded":{"lat":32.065733,"lng":34.7866327}},{"address":"ראשון לציון 77 רוטשילד","geocoded":{"lat":31.9640078,"lng":34.7972218}},{"address":"הרצליה 103 מדינת היהודים","geocoded":{"lat":32.1660259,"lng":34.8133011}},{"address":"תל אביב - יפו 41 שדרות רוטשילד","geocoded":{"lat":32.0641275,"lng":34.7744379}},{"address":"תל אביב - יפו 32 ארניה אסוולדו","geocoded":{"lat":32.0702631,"lng":34.7860013}},{"address":"רמת גן 28 היצירה","geocoded":{"lat":32.0878813,"lng":34.802174}},{"address":"חולון 12 הבנאי","geocoded":{"lat":32.0156655,"lng":34.8044032}},{"address":"גבעתיים 8 פועלי הרכבת","geocoded":{"lat":32.0784527,"lng":34.8174398}},{"address":"תל אביב - יפו 38 יהודה הנשיא","geocoded":{"lat":32.1201108,"lng":34.7963686}},{"address":"תל אביב - יפו 7 בית אלפא","geocoded":{"lat":32.0657485,"lng":34.7881333}},{"address":"תל אביב - יפו 10 קהילת ונציה","geocoded":{"lat":32.1140278,"lng":34.822816}},{"address":"הרצליה 8 נורדאו","geocoded":{"lat":32.1687554,"lng":34.8156322}},{"address":"תל אביב - יפו 16 אלקחי מרדכי","geocoded":{"lat":32.1255337,"lng":34.8080201}},{"address":"תל אביב - יפו 9 החלוצים","geocoded":{"lat":32.0598703,"lng":34.7733742}},{"address":"הרצליה 19 אלתרמן נתן","geocoded":{"lat":32.1744013,"lng":34.8381761}},{"address":"תל אביב - יפו 8 בלפור","geocoded":{"lat":32.0678566,"lng":34.7723594}},{"address":"תל אביב - יפו 9 קבוץ גלויות","geocoded":{"lat":32.0538248,"lng":34.7638172}},{"address":"ראשון לציון 4 פנקס דוד","geocoded":{"lat":31.9730015,"lng":34.7925013}},{"address":"תל אביב - יפו 53 ויצמן","geocoded":{"lat":32.0848954,"lng":34.789189}},{"address":"רמת גן 5 דרך שיבא","geocoded":{"lat":32.052346,"lng":34.8379783}},{"address":"תל אביב - יפו 8 נטר קרל","geocoded":{"lat":32.065016,"lng":34.7738549}},{"address":"הרצליה 22 שאול המלך","geocoded":{"lat":32.1691734,"lng":34.8119286}},{"address":"הרצליה 3 הרב גורן","geocoded":{"lat":32.164245,"lng":34.8521668}},{"address":"ראשון לציון 3 האורגן","geocoded":{"lat":31.9676097,"lng":34.776798}},{"address":"תל אביב - יפו 16 בית אלפא","geocoded":{"lat":32.0652778,"lng":34.7894444}},{"address":"רמת גן 135 דרך בן גוריון דוד","geocoded":{"lat":32.0796465,"lng":34.8199547}},{"address":"תל אביב - יפו 45 שדרות רוטשילד","geocoded":{"lat":32.0642807,"lng":34.774554}},{"address":"רמת גן 35 שד האורנים רמת אפעל","geocoded":{"lat":32.0460805,"lng":34.8365655}},{"address":"תל אביב - יפו 31 קרליבך","geocoded":{"lat":32.0692448,"lng":34.7827092}},{"address":"תל אביב - יפו 7 בית צורי אליהו","geocoded":{"lat":32.1227955,"lng":34.7994893}},{"address":"גבעתיים 5 סמ אליהו","geocoded":{"lat":32.072176,"lng":34.808871}},{"address":"רמת גן 29 הירדן","geocoded":{"lat":32.0661378,"lng":34.8287611}},{"address":"תל אביב - יפו 8 החשמל","geocoded":{"lat":32.0610392,"lng":34.7752478}},{"address":"תל אביב - יפו 14 שרת משה","geocoded":{"lat":32.0851822,"lng":34.7884058}},{"address":"הרצליה 7 גלגל הפלדה","geocoded":{"lat":32.16329,"lng":34.80823549999999}},{"address":"תל אביב - יפו 3 חביב אבשלום","geocoded":{"lat":32.1258379,"lng":34.7975654}},{"address":"ראשון לציון 5 האחים סמילצ'נסקי","geocoded":{"lat":31.9600782,"lng":34.8002492}},{"address":"תל אביב - יפו 57 שרת משה","geocoded":{"lat":32.0883216,"lng":34.7912486}},{"address":"חולון 73 המרכבה","geocoded":{"lat":32.01503,"lng":34.808327}},{"address":"תל אביב - יפו 18 פומבדיתא","geocoded":{"lat":32.0818709,"lng":34.7882291}},{"address":"גבעתיים 13 ויצמן","geocoded":{"lat":32.074979,"lng":34.8087077}},{"address":"תל אביב - יפו 18 עזרא הסופר","geocoded":{"lat":32.069666,"lng":34.7655258}},{"address":"הרצליה 93 שד' אלי לנדאו","geocoded":{"lat":32.1681218,"lng":34.8001464}},{"address":"תל אביב - יפו 7 האחים מסלאויטה","geocoded":{"lat":32.0677458,"lng":34.7906146}},{"address":"תל אביב - יפו 3 שטיבל","geocoded":{"lat":32.065991,"lng":34.7882669}},{"address":"הרצליה 91 שלוה","geocoded":{"lat":32.1690155,"lng":34.8087877}},{"address":"תל אביב - יפו 23 סמ שלוש","geocoded":{"lat":32.060739,"lng":34.765093}},{"address":"תל אביב - יפו 15 פאת השולחן","geocoded":{"lat":32.0778925,"lng":34.8006044}},{"address":"תל אביב - יפו 10 קובנר אבא","geocoded":{"lat":32.1014489,"lng":34.7842874}},{"address":"הרצליה 16 גלגל הפלדה","geocoded":{"lat":32.16496,"lng":34.8095545}},{"address":"ראשון לציון 1 רזיאל דוד","geocoded":{"lat":31.9890377,"lng":34.7707902}},{"address":"תל אביב - יפו 10 פרי אליעזר","geocoded":{"lat":32.08653,"lng":34.7695666}},{"address":"תל אביב - יפו 4 הא באייר","geocoded":{"lat":32.074711,"lng":34.8435966}},{"address":"תל אביב - יפו 28 דפנה","geocoded":{"lat":32.0801042,"lng":34.7932235}},{"address":"רמת גן 12 הגאון אליהו","geocoded":{"lat":32.0730497,"lng":34.8305946}},{"address":"ראשון לציון 10 הכשרת הישוב","geocoded":{"lat":31.9936918,"lng":34.7594886}},{"address":"ראשון לציון 11 החרצית","geocoded":{"lat":31.9733806,"lng":34.7857858}},{"address":"תל אביב - יפו 18 סולד הנרייטה","geocoded":{"lat":32.0812893,"lng":34.7918929}},{"address":"תל אביב - יפו 73 שלומציון המלכה","geocoded":{"lat":32.0953572,"lng":34.7897014}},{"address":"תל אביב - יפו 62 פנקס","geocoded":{"lat":32.0907008,"lng":34.7932167}},{"address":"תל אביב - יפו 1 יפת","geocoded":{"lat":32.0545673,"lng":34.7560873}},{"address":"רמת גן 40 תובל","geocoded":{"lat":32.0849718,"lng":34.8020878}},{"address":"תל אביב - יפו 4 ועידת קטוביץ","geocoded":{"lat":32.0925327,"lng":34.7928049}},{"address":"חולון 13 האורגים","geocoded":{"lat":32.0099719,"lng":34.8017939}},{"address":"גבעתיים 4 אריאל שרון/מגדל השחר","geocoded":{"lat":32.0800181,"lng":34.7998574}},{"address":"תל אביב - יפו 69 בוגרשוב","geocoded":{"lat":32.0750308,"lng":34.7737556}},{"address":"הרצליה 59 בן יהודה","geocoded":{"lat":32.1584558,"lng":34.8457854}},{"address":"הרצליה 27 משכית","geocoded":{"lat":32.1632571,"lng":34.8107107}},{"address":"הרצליה 32 סוקולוב","geocoded":{"lat":32.1671937,"lng":34.8437297}},{"address":"תל אביב - יפו 1 ברזאני משה","geocoded":{"lat":32.1261134,"lng":34.7960432}},{"address":"חולון 14 היוגב","geocoded":{"lat":32.0135249,"lng":34.8052728}},{"address":"תל אביב - יפו 14 אלנבי","geocoded":{"lat":32.0732271,"lng":34.7664395}},{"address":"רמת גן 47 יאיר","geocoded":{"lat":32.0584739,"lng":34.8261791}},{"address":"תל אביב - יפו 1 יורם קניוק","geocoded":{"lat":32.0490815,"lng":34.789337}},{"address":"הרצליה 12 משכית","geocoded":{"lat":32.1656131,"lng":34.8113118}},{"address":"רמת גן 15 השורה","geocoded":{"lat":32.0805271,"lng":34.8230686}},{"address":"תל אביב - יפו 42 ברנדיס","geocoded":{"lat":32.0952607,"lng":34.7874245}},{"address":"ראשון לציון 1 השר שפירא משה","geocoded":{"lat":32.0996722,"lng":34.8759313}},{"address":"תל אביב - יפו 42 אילת","geocoded":{"lat":32.0586423,"lng":34.7656723}},{"address":"תל אביב - יפו 9 צייטלין","geocoded":{"lat":32.0795359,"lng":34.7824104}},{"address":"הרצליה 13 פינסקר","geocoded":{"lat":32.1677952,"lng":34.8373659}},{"address":"רמת גן 11 נחום","geocoded":{"lat":32.0599871,"lng":34.8307005}},{"address":"תל אביב - יפו 7 רחל","geocoded":{"lat":32.0856528,"lng":34.7769211}},{"address":"תל אביב - יפו 49 פנקס","geocoded":{"lat":32.0911547,"lng":34.7897698}},{"address":"ראשון לציון 13 השר שפירא משה","geocoded":{"lat":32.01116,"lng":34.773644}},{"address":"הרצליה 63 יפה אריה לייב","geocoded":{"lat":32.171468,"lng":34.8511759}},{"address":"תל אביב - יפו 57 מטלון","geocoded":{"lat":32.0585027,"lng":34.7744257}},{"address":"תל אביב - יפו 6 פריש דניאל","geocoded":{"lat":32.0740724,"lng":34.78240359999999}},{"address":"תל אביב - יפו 11 שונצינו","geocoded":{"lat":32.0666015,"lng":34.7873271}},{"address":"הרצליה 57 סוקולוב","geocoded":{"lat":32.1672832,"lng":34.8454604}},{"address":"תל אביב - יפו 17 דאנטה","geocoded":{"lat":32.0477448,"lng":34.7593923}},{"address":"תל אביב - יפו 6 הנצי~ב","geocoded":{"lat":32.0682734,"lng":34.7900066}},{"address":"תל אביב - יפו 20 בויאר אברהם","geocoded":{"lat":32.1231473,"lng":34.7973668}},{"address":"תל אביב - יפו 12 קפלן","geocoded":{"lat":32.0731486,"lng":34.7846146}},{"address":"תל אביב - יפו 16 שד' דוד המלך","geocoded":{"lat":32.0799259,"lng":34.7834875}},{"address":"תל אביב - יפו 18 סשא ארגוב","geocoded":{"lat":32.1261735,"lng":34.8308823}},{"address":"חולון 49 הכישור","geocoded":{"lat":32.0051958,"lng":34.8008351}},{"address":"תל אביב - יפו 106 שד' הר ציון","geocoded":{"lat":32.0513033,"lng":34.77383}},{"address":"תל אביב - יפו 18 שד' דוד המלך","geocoded":{"lat":32.0799578,"lng":34.7838942}},{"address":"תל אביב - יפו 12 דה פיג'וטו","geocoded":{"lat":32.0611231,"lng":34.7731492}},{"address":"ראשון לציון 4 אצ~ל","geocoded":{"lat":31.9888569,"lng":34.7675078}},{"address":"תל אביב - יפו 55 דרך בגין","geocoded":{"lat":32.0670724,"lng":34.7846784}},{"address":"תל אביב - יפו 6 מיטב","geocoded":{"lat":32.0655878,"lng":34.7951278}},{"address":"תל אביב - יפו 10 ראשית חכמה","geocoded":{"lat":32.0541159,"lng":34.7734113}},{"address":"תל אביב - יפו 7 תוצרת הארץ","geocoded":{"lat":32.0732734,"lng":34.7970061}},{"address":"תל אביב - יפו 6 שגאל מרק","geocoded":{"lat":32.1181188,"lng":34.7880002}},{"address":"תל אביב - יפו 1 רקנאטי","geocoded":{"lat":32.1220151,"lng":34.8019258}},{"address":"ראשון לציון 2 שדרות נים","geocoded":{"lat":31.95017679999999,"lng":34.8029427}},{"address":"תל אביב - יפו 3 מיקוניס שמואל","geocoded":{"lat":32.0602668,"lng":34.7851133}},{"address":"חולון 32 מונטיפיורי","geocoded":{"lat":32.024945,"lng":34.769966}},{"address":"תל אביב - יפו 44 מונטיפיורי","geocoded":{"lat":32.0657364,"lng":34.774157}},{"address":"תל אביב - יפו 298 דיזנגוף","geocoded":{"lat":32.0941948,"lng":34.7769155}},{"address":"גבעתיים 258 דרך בן גוריון דוד","geocoded":{"lat":32.0657464,"lng":34.8142368}},{"address":"תל אביב - יפו 21 יוחנן הורקנוס","geocoded":{"lat":32.0941084,"lng":34.781289}},{"address":"תל אביב - יפו  דרך ההגנה  37/15","geocoded":{"lat":32.054359,"lng":34.7870795}},{"address":"תל אביב - יפו 34 יצחק שדה","geocoded":{"lat":32.0649487,"lng":34.7877015}},{"address":"תל אביב - יפו 4 הרב פרנקל","geocoded":{"lat":32.0570601,"lng":34.7676542}},{"address":"רמת גן 3 עין יהב","geocoded":{"lat":32.0565751,"lng":34.8163399}},{"address":"תל אביב - יפו 16 דרך בן צבי","geocoded":{"lat":32.0493934,"lng":34.7607603}},{"address":"תל אביב - יפו 7 דרך השלום","geocoded":{"lat":32.0721997,"lng":34.796344}},{"address":"רמת גן 5 החילזון","geocoded":{"lat":32.0871457,"lng":34.8048438}},{"address":"תל אביב - יפו 22 רוממה","geocoded":{"lat":32.1207024,"lng":34.8244762}},{"address":"רמת גן 106 רוקח","geocoded":{"lat":32.0950338,"lng":34.8129437}},{"address":"רמת גן 1 ז'בוטינסקי","geocoded":{"lat":32.0738144,"lng":34.8088437}},{"address":"רמת גן 24 דרך בגין מנחם","geocoded":{"lat":32.0857998,"lng":34.8004865}},{"address":"רמת גן 30 תובל","geocoded":{"lat":32.0865824,"lng":34.8028686}},{"address":"תל אביב - יפו 71 יהודה הלוי","geocoded":{"lat":32.0639719,"lng":34.7763571}},{"address":"ראשון לציון 27 סוקולוב","geocoded":{"lat":31.9592237,"lng":34.8030932}},{"address":"רמת גן 5 יעקב רוזן","geocoded":{"lat":32.068424,"lng":34.824785}},{"address":"תל אביב - יפו 3 שלומציון המלכה","geocoded":{"lat":32.0949214,"lng":34.7847604}},{"address":"תל אביב - יפו 30 אבן גבירול","geocoded":{"lat":32.0750419,"lng":34.7819586}},{"address":"תל אביב - יפו 17 עמינדב","geocoded":{"lat":32.0648782,"lng":34.7950872}},{"address":"ראשון לציון 10 צייטלין","geocoded":{"lat":32.1029418,"lng":34.8772024}},{"address":"תל אביב - יפו 45 נחמני","geocoded":{"lat":32.0649812,"lng":34.7788578}},{"address":"תל אביב - יפו 8 קהילת קיוב","geocoded":{"lat":32.1145276,"lng":34.8190977}},{"address":"תל אביב - יפו 13 נתן החכם","geocoded":{"lat":32.0827102,"lng":34.7727607}},{"address":"תל אביב - יפו 12 שלומציון המלכה","geocoded":{"lat":32.0946921,"lng":34.7859463}},{"address":"רמת גן 24 הרצל","geocoded":{"lat":32.0818541,"lng":34.8171772}},{"address":"גבעתיים 15 סירקין","geocoded":{"lat":32.078284,"lng":34.8149326}},{"address":"רמת גן 7 דרך אבא הלל","geocoded":{"lat":32.0845912,"lng":34.8030252}},{"address":"הרצליה 57 הקדמה","geocoded":{"lat":32.162413,"lng":34.844675}},{"address":"רמת גן 3 האחים ליטוינסקי","geocoded":{"lat":32.0545299,"lng":34.8497034}},{"address":"ראשון לציון 5 פלוטיצקי","geocoded":{"lat":31.9837115,"lng":34.8127234}},{"address":"תל אביב - יפו 4 מרמורק","geocoded":{"lat":32.0715777,"lng":34.7796062}},{"address":"תל אביב - יפו 1 סומקן","geocoded":{"lat":32.0338119,"lng":34.7577737}},{"address":"רמת גן 11 האחים ליטוינסקי","geocoded":{"lat":32.0538968,"lng":34.8496235}},{"address":"תל אביב - יפו 16 קלוזנר","geocoded":{"lat":32.1164477,"lng":34.8077773}},{"address":"גבעתיים 4 אריאל שרון","geocoded":{"lat":32.0798991,"lng":34.8001217}},{"address":"תל אביב - יפו 2 הברזל","geocoded":{"lat":32.1063724,"lng":34.8334841}},{"address":"תל אביב - יפו 1 הברזל","geocoded":{"lat":32.106748,"lng":34.8336526}},{"address":"תל אביב - יפו 31 הרב פרידמן","geocoded":{"lat":32.093861,"lng":34.7929878}},{"address":"רמת גן 12 החילזון","geocoded":{"lat":32.0856382,"lng":34.8034042}},{"address":"רמת גן 25 שד בן צבי","geocoded":{"lat":32.05747,"lng":34.8293073}},{"address":"תל אביב - יפו 198 בן יהודה","geocoded":{"lat":32.0899732,"lng":34.7741025}},{"address":"תל אביב - יפו 55 הרצל","geocoded":{"lat":32.0584533,"lng":34.7709132}},{"address":"רמת גן 13 שד התמרים","geocoded":{"lat":32.0888287,"lng":34.8218467}},{"address":"תל אביב - יפו 67 אלון יגאל","geocoded":{"lat":32.0661271,"lng":34.7924588}},{"address":"ראשון לציון 10 לזרוב","geocoded":{"lat":31.9931676,"lng":34.7707731}},{"address":"ראשון לציון 7 איתן","geocoded":{"lat":31.9939242,"lng":34.7641823}},{"address":"תל אביב - יפו 36 שץ גגה גרשון","geocoded":{"lat":32.0832019,"lng":34.775299}},{"address":"תל אביב - יפו 21 הארבעה","geocoded":{"lat":32.0704496,"lng":34.7870971}},{"address":"תל אביב - יפו 53 אלון יגאל","geocoded":{"lat":32.0621854,"lng":34.7917857}},{"address":"תל אביב - יפו 13 קהילת סאלוניקי","geocoded":{"lat":32.1128011,"lng":34.8244378}},{"address":"רמת גן 146 עוזיאל","geocoded":{"lat":32.0631184,"lng":34.8197043}},{"address":"תל אביב - יפו 34 הברזל","geocoded":{"lat":32.1091364,"lng":34.8408152}},{"address":"הרצליה 53 יהודה הנשיא","geocoded":{"lat":32.1548676,"lng":34.8482674}},{"address":"ראשון לציון 19 סחרוב דוד","geocoded":{"lat":31.990723,"lng":34.7724114}},{"address":"תל אביב - יפו 70 נחלת בנימין","geocoded":{"lat":32.0608894,"lng":34.7724356}},{"address":"תל אביב - יפו 9 אנטיגונוס","geocoded":{"lat":32.09273640000001,"lng":34.7848657}},{"address":"תל אביב - יפו 18 רקנאטי","geocoded":{"lat":32.1241794,"lng":34.8028006}},{"address":"תל אביב - יפו 17 פרץ י ל","geocoded":{"lat":32.0597077,"lng":34.7750869}},{"address":"הרצליה 46 נורדאו","geocoded":{"lat":32.1736352,"lng":34.816765}},{"address":"תל אביב - יפו 32 פרץ י ל","geocoded":{"lat":32.0590445,"lng":34.7758486}},{"address":"תל אביב - יפו 43 ברודצקי","geocoded":{"lat":32.1118678,"lng":34.7974995}},{"address":"תל אביב - יפו 8 הארבעה","geocoded":{"lat":32.0703125,"lng":34.783464}},{"address":"הרצליה 15 שפינוזה","geocoded":{"lat":32.1730428,"lng":34.8145067}},{"address":"רמת גן 20 דרך בן גוריון דוד","geocoded":{"lat":32.0937565,"lng":34.821991}},{"address":"תל אביב - יפו 3 השלושה","geocoded":{"lat":32.0621674,"lng":34.7888379}},{"address":"רמת גן 52 ביאליק","geocoded":{"lat":32.0842454,"lng":34.8138967}},{"address":"תל אביב - יפו 114 נחלת בנימין","geocoded":{"lat":32.0575328,"lng":34.7717989}},{"address":"תל אביב - יפו 18 בויאר אברהם","geocoded":{"lat":32.1232334,"lng":34.7967902}},{"address":"תל אביב - יפו 50 צה~ל","geocoded":{"lat":32.12258840000001,"lng":34.8328588}},{"address":"תל אביב - יפו 7 קרליבך","geocoded":{"lat":32.0668327,"lng":34.7832866}},{"address":"הרצליה 19 מרבד הקסמים","geocoded":{"lat":32.1582792,"lng":34.8498961}},{"address":"חולון 10 הנפח","geocoded":{"lat":32.0190297,"lng":34.7977754}},{"address":"תל אביב - יפו 4 רוזנבלום הרצל","geocoded":{"lat":32.1375919,"lng":34.7911349}},{"address":"חולון 54 סוקולוב","geocoded":{"lat":32.02255160000001,"lng":34.774926}},{"address":"רמת גן 9 מנדל מתתיהו","geocoded":{"lat":32.0685982,"lng":34.83434099999999}},{"address":"רמת גן 9 חורגין","geocoded":{"lat":32.0737501,"lng":34.8200934}},{"address":"רמת גן 26 ד~ר אליהו","geocoded":{"lat":32.0516093,"lng":34.8451488}},{"address":"תל אביב - יפו 17 גרונר דב","geocoded":{"lat":32.1251156,"lng":34.8066448}},{"address":"תל אביב - יפו 1 אלנבי","geocoded":{"lat":32.073768,"lng":34.7655444}},{"address":"חולון 25 גאולים","geocoded":{"lat":32.01625,"lng":34.7853422}},{"address":"תל אביב - יפו 71 אבן גבירול","geocoded":{"lat":32.0822869,"lng":34.7801509}},{"address":"תל אביב - יפו 17 תושיה","geocoded":{"lat":32.0666974,"lng":34.7902611}},{"address":"תל אביב - יפו 56 אלנבי","geocoded":{"lat":32.0706039,"lng":34.7699812}},{"address":"תל אביב - יפו 32 קבוץ גלויות","geocoded":{"lat":32.0759888,"lng":34.8392733}},{"address":"חולון 19 המרכבה","geocoded":{"lat":32.01503,"lng":34.808327}},{"address":"רמת גן 1 יעקב רוזן","geocoded":{"lat":32.068424,"lng":34.824785}},{"address":"תל אביב - יפו 38 הא באייר","geocoded":{"lat":32.04553,"lng":34.790329}},{"address":"תל אביב - יפו 29 החלוצים","geocoded":{"lat":32.058306,"lng":34.772975}},{"address":"תל אביב - יפו 146 דרך בגין","geocoded":{"lat":32.0782645,"lng":34.7937118}},{"address":"תל אביב - יפו 6 שדרות ח~ן","geocoded":{"lat":32.0746728,"lng":34.7801518}},{"address":"הרצליה 1 קרן היסוד","geocoded":{"lat":32.1800329,"lng":34.814641}},{"address":"רמת גן 30 דרך אבא הלל","geocoded":{"lat":32.0881687,"lng":34.8073695}},{"address":"תל אביב - יפו 32 הברזל","geocoded":{"lat":32.1098862,"lng":34.8417187}},{"address":"הרצליה 70 סוקולוב","geocoded":{"lat":32.1669418,"lng":34.8480594}},{"address":"תל אביב - יפו 36 שד' דוד המלך","geocoded":{"lat":32.0797679,"lng":34.7865231}},{"address":"תל אביב - יפו 111 דרך השלום","geocoded":{"lat":32.0605441,"lng":34.8065019}},{"address":"תל אביב - יפו 20 הרב הרצוג","geocoded":{"lat":32.0951434,"lng":34.7973581}},{"address":"רמת גן 7 אבא הלל","geocoded":{"lat":32.0845912,"lng":34.8030252}},{"address":"תל אביב - יפו 43 החשמונאים","geocoded":{"lat":32.0708358,"lng":34.7777935}},{"address":"רמת גן 15 נחום","geocoded":{"lat":32.068424,"lng":34.824785}},{"address":"תל אביב - יפו 11 מיטב","geocoded":{"lat":32.0662155,"lng":34.7948562}},{"address":"ראשון לציון 16 דרור","geocoded":{"lat":31.967597,"lng":34.806314}},{"address":"ראשון לציון 31 ביל~ו","geocoded":{"lat":31.9578747,"lng":34.8101351}},{"address":"הרצליה 42 ברנר","geocoded":{"lat":32.1573899,"lng":34.8476094}},{"address":"חולון 12 הלוחמים","geocoded":{"lat":32.0307336,"lng":34.7709115}},{"address":"רמת גן 27 בצלאל","geocoded":{"lat":32.0864695,"lng":34.8012563}},{"address":"תל אביב - יפו  שדרות רוטשילד","geocoded":{"lat":32.0654326,"lng":34.7766433}},{"address":"תל אביב - יפו 109 הירקון","geocoded":{"lat":32.0803871,"lng":34.7682305}},{"address":"תל אביב - יפו 9 אחד העם","geocoded":{"lat":32.0641153,"lng":34.7695928}},{"address":"חולון 4 המשביר","geocoded":{"lat":32.0155963,"lng":34.8011919}},{"address":"תל אביב - יפו 23 עמק ברכה","geocoded":{"lat":32.0764554,"lng":34.7984091}},{"address":"תל אביב - יפו 10 ברנדיס","geocoded":{"lat":32.0917937,"lng":34.7873055}},{"address":"תל אביב - יפו 1 שד' שאול המלך","geocoded":{"lat":32.0757548,"lng":34.7816381}},{"address":"רמת גן 75 הרצל","geocoded":{"lat":32.0870583,"lng":34.8148082}},{"address":"חולון 6 המכתש","geocoded":{"lat":32.0258182,"lng":34.7947711}},{"address":"ראשון לציון 18 איתן","geocoded":{"lat":31.9952202,"lng":34.7649231}},{"address":"הרצליה 22 בן גוריון","geocoded":{"lat":32.1627602,"lng":34.8415914}},{"address":"הרצליה 36 הפועל","geocoded":{"lat":32.185857,"lng":34.81447}},{"address":"רמת גן 5 זבוטינסקי","geocoded":{"lat":32.0738102,"lng":34.8092459}},{"address":"תל אביב - יפו 76 הרב פרנקל","geocoded":{"lat":32.056462,"lng":34.773801}},{"address":"ראשון לציון 48 דרך המכבים","geocoded":{"lat":31.9811559,"lng":34.809778}},{"address":"תל אביב - יפו 27 יהושע בן נון","geocoded":{"lat":32.0884454,"lng":34.780199}},{"address":"תל אביב - יפו 30 לילינבלום","geocoded":{"lat":32.0621447,"lng":34.7708148}},{"address":"הרצליה 33 חבצלת השרון","geocoded":{"lat":32.1799556,"lng":34.8052089}},{"address":"תל אביב - יפו 5 תל גבורים","geocoded":{"lat":32.0412163,"lng":34.7703747}},{"address":"תל אביב - יפו 14 בר יוחאי","geocoded":{"lat":32.0531307,"lng":34.77268480000001}},{"address":"תל אביב - יפו 132 דרך בגין","geocoded":{"lat":32.0743897,"lng":34.7921693}},{"address":"תל אביב - יפו 138 שדרות רוטשילד","geocoded":{"lat":32.0714045,"lng":34.7793297}},{"address":"רמת גן 4 יערה","geocoded":{"lat":32.0591725,"lng":34.8478516}},{"address":"חולון 40 הרוקמים","geocoded":{"lat":32.0051525,"lng":34.8042262}},{"address":"גבעתיים 60 כצנלסון","geocoded":{"lat":32.0751425,"lng":34.8080571}},{"address":"תל אביב - יפו 4 הרכב","geocoded":{"lat":32.0627424,"lng":34.7859723}},{"address":"תל אביב - יפו 53 דרך השלום","geocoded":{"lat":32.066902,"lng":34.803277}},{"address":"תל אביב - יפו 55 אלון יגאל","geocoded":{"lat":32.0625329,"lng":34.7918235}},{"address":"תל אביב - יפו 7 נקר מאיר","geocoded":{"lat":32.1246165,"lng":34.8074728}},{"address":"תל אביב - יפו 31 שדרות רוטשילד","geocoded":{"lat":32.063831,"lng":34.7731644}},{"address":"רמת גן 10 החרצית רמת אפעל","geocoded":{"lat":32.0468421,"lng":34.837216}},{"address":"רמת גן 70 יוסף צבי","geocoded":{"lat":32.063485,"lng":34.8202073}},{"address":"תל אביב - יפו 17 בת מרים יוכבד","geocoded":{"lat":32.1218694,"lng":34.8205694}},{"address":"הרצליה 28 קדושי השואה","geocoded":{"lat":32.1697103,"lng":34.8071949}},{"address":"תל אביב - יפו 4 ולנברג ראול","geocoded":{"lat":32.1076014,"lng":34.8351888}},{"address":"תל אביב - יפו 14 ולנברג ראול","geocoded":{"lat":32.1090274,"lng":34.8366211}},{"address":"תל אביב - יפו 8 דרך בגין","geocoded":{"lat":32.06045840000001,"lng":34.7745264}},{"address":"חולון 12 סוקולוב","geocoded":{"lat":32.0230345,"lng":34.7714035}},{"address":"רמת גן 17 דרך אבא הלל","geocoded":{"lat":32.0858547,"lng":34.8042593}},{"address":"תל אביב - יפו 2 הנחושת","geocoded":{"lat":32.1085091,"lng":34.8402647}},{"address":"תל אביב - יפו 12 קדושי השואה","geocoded":{"lat":32.125511,"lng":34.7925048}},{"address":"תל אביב - יפו 22 הגדוד העברי","geocoded":{"lat":32.0598579,"lng":34.7758919}},{"address":"תל אביב - יפו 35 קוממיות","geocoded":{"lat":32.1191198,"lng":34.8068485}},{"address":"תל אביב - יפו 13 דה וינצ'י לאונרדו","geocoded":{"lat":32.0763929,"lng":34.7685156}},{"address":"תל אביב - יפו 16 טיומקין","geocoded":{"lat":32.0638887,"lng":34.779301}},{"address":"תל אביב - יפו 10 קרמניצקי","geocoded":{"lat":32.0665684,"lng":34.7946621}},{"address":"תל אביב - יפו 23 ארניה אסוולדו","geocoded":{"lat":32.0707673,"lng":34.7864641}},{"address":"תל אביב - יפו 76 אלון יגאל","geocoded":{"lat":32.0652457,"lng":34.7926327}},{"address":"תל אביב - יפו 1 גר צדק","geocoded":{"lat":32.0419025,"lng":34.7579719}},{"address":"רמת גן 1 מנחם יצחק","geocoded":{"lat":32.0907053,"lng":34.8186627}},{"address":"ראשון לציון 1 בית הערבה","geocoded":{"lat":31.965755,"lng":34.780086}},{"address":"תל אביב - יפו 60 שדרות בן גוריון","geocoded":{"lat":32.0834856,"lng":34.7759639}},{"address":"חולון 21 הפלד","geocoded":{"lat":32.0205552,"lng":34.7998573}},{"address":"רמת גן 129 ז'בוטינסקי","geocoded":{"lat":32.0730918,"lng":34.8172899}},{"address":"תל אביב - יפו 13 אבוקה","geocoded":{"lat":32.1249447,"lng":34.8299724}},{"address":"רמת גן 183 אלוף דוד","geocoded":{"lat":32.0533415,"lng":34.8167205}},{"address":"תל אביב - יפו 1 צייטלין","geocoded":{"lat":32.0795853,"lng":34.7814627}},{"address":"תל אביב - יפו 4 אלוני ניסים","geocoded":{"lat":32.0878105,"lng":34.7970809}},{"address":"תל אביב - יפו 32 ענתות","geocoded":{"lat":32.1251032,"lng":34.8298797}},{"address":"תל אביב - יפו 5 פאגלין עמיחי","geocoded":{"lat":32.1251539,"lng":34.7937336}},{"address":"הרצליה 8 הרב פישמן","geocoded":{"lat":32.1895509,"lng":34.8067527}},{"address":"חולון 47 הכישור","geocoded":{"lat":32.0047063,"lng":34.8007687}},{"address":"תל אביב - יפו 4 יצחק שדה","geocoded":{"lat":32.0653674,"lng":34.7849193}},{"address":"תל אביב - יפו 103 החשמונאים","geocoded":{"lat":32.0695959,"lng":34.784603}},{"address":"רמת גן 3 הבילויים","geocoded":{"lat":32.0607779,"lng":34.8219631}},{"address":"תל אביב - יפו 29 שד' בן ציון","geocoded":{"lat":32.0727983,"lng":34.7781574}},{"address":"רמת גן 9 גרשום","geocoded":{"lat":32.06916700000001,"lng":34.8299119}},{"address":"תל אביב - יפו 37 יצחק שדה","geocoded":{"lat":32.0650843,"lng":34.7890737}},{"address":"תל אביב - יפו 6 הלסינקי","geocoded":{"lat":32.0836344,"lng":34.7921596}},{"address":"תל אביב - יפו 6 חפץ ישה","geocoded":{"lat":32.1158014,"lng":34.7874408}},{"address":"תל אביב - יפו 140 שדרות רוטשילד","geocoded":{"lat":32.0715781,"lng":34.7793931}},{"address":"תל אביב - יפו 9 ברלין אליהו","geocoded":{"lat":32.1238136,"lng":34.792345}},{"address":"תל אביב - יפו 26 רופא המחתרות","geocoded":{"lat":32.1005721,"lng":34.7844365}},{"address":"תל אביב - יפו 95 שדרות בן גוריון","geocoded":{"lat":32.0822321,"lng":34.7800209}},{"address":"הרצליה 34 האשל","geocoded":{"lat":32.1867674,"lng":34.8102273}},{"address":"תל אביב - יפו 38 השוק","geocoded":{"lat":32.058024,"lng":34.7714528}},{"address":"רמת גן 54 בצלאל","geocoded":{"lat":32.0864812,"lng":34.8012021}},{"address":"רמת גן 7 נחליאלי","geocoded":{"lat":32.068424,"lng":34.824785}},{"address":"תל אביב - יפו 16 דרך בגין","geocoded":{"lat":32.0604465,"lng":34.7759134}},{"address":"תל אביב - יפו 42 יהודה המכבי","geocoded":{"lat":32.0937891,"lng":34.791548}},{"address":"ראשון לציון 34 תרמ~ב","geocoded":{"lat":31.9666105,"lng":34.7998165}},{"address":"חולון 31 המרכבה","geocoded":{"lat":32.01503,"lng":34.808327}},{"address":"חולון 33 שפרינצק","geocoded":{"lat":32.0217779,"lng":34.7766254}},{"address":"ראשון לציון 3 פלוטיצקי","geocoded":{"lat":31.9836429,"lng":34.813812}},{"address":"תל אביב - יפו 38 הרב קוק","geocoded":{"lat":32.0708555,"lng":34.7676075}},{"address":"תל אביב - יפו 8 חפץ ישה","geocoded":{"lat":32.12020340000001,"lng":34.8116095}},{"address":"תל אביב - יפו 50 הרצל","geocoded":{"lat":32.0589373,"lng":34.7706601}},{"address":"תל אביב - יפו 52 המתנדב","geocoded":{"lat":32.1203712,"lng":34.8090258}},{"address":"הרצליה 8 הסדנאות","geocoded":{"lat":32.1615541,"lng":34.8064053}},{"address":"תל אביב - יפו 85 אבן גבירול","geocoded":{"lat":32.0843151,"lng":34.7813965}},{"address":"תל אביב - יפו 11 דרך השלום","geocoded":{"lat":32.0719625,"lng":34.7967696}},{"address":"רמת גן 49 בן אליעזר אריה","geocoded":{"lat":32.0616511,"lng":34.8319654}},{"address":"תל אביב - יפו 4 טוסקניני","geocoded":{"lat":32.0730365,"lng":34.780902}},{"address":"תל אביב - יפו 14 גולדברג לאה","geocoded":{"lat":32.1200409,"lng":34.8217163}},{"address":"תל אביב - יפו 133 דיזנגוף","geocoded":{"lat":32.0820237,"lng":34.7736677}},{"address":"תל אביב - יפו 18 יהודה הלוי","geocoded":{"lat":32.0613244,"lng":34.7697579}},{"address":"תל אביב - יפו 0 אוניברסיטת תל -אביב","geocoded":{"lat":32.1133141,"lng":34.8043877}},{"address":"רמת גן 9 מוזס נח","geocoded":{"lat":32.0755493,"lng":34.7946368}},{"address":"ראשון לציון 8 טיומקין","geocoded":{"lat":31.95957829999999,"lng":34.8032863}},{"address":"הרצליה 12 שלמה המלך","geocoded":{"lat":32.1760602,"lng":34.8110711}},{"address":"תל אביב - יפו 17 יבנה","geocoded":{"lat":32.0651519,"lng":34.7733453}},{"address":"תל אביב - יפו  חובבי ציון","geocoded":{"lat":32.0767362,"lng":34.770016}},{"address":"חולון 13 הסתת","geocoded":{"lat":32.0124621,"lng":34.80022659999999}},{"address":"ראשון לציון 2 סילבר","geocoded":{"lat":31.9730015,"lng":34.7925013}},{"address":"תל אביב - יפו 46 שדרות רוטשילד","geocoded":{"lat":32.0637778,"lng":34.7746303}},{"address":"רמת גן 44 הבילויים","geocoded":{"lat":32.0600116,"lng":34.8257021}},{"address":"תל אביב - יפו 60 לבנון חיים","geocoded":{"lat":32.1161792,"lng":34.8022659}},{"address":"ראשון לציון 10 ילדי טהרן","geocoded":{"lat":31.9857618,"lng":34.7690473}},{"address":"תל אביב - יפו 8 גלילי ישראל","geocoded":{"lat":32.1008009,"lng":34.7852763}},{"address":"רמת גן  אונברסיטה בר אילן","geocoded":{"lat":32.0691989,"lng":34.8430876}},{"address":"תל אביב - יפו 30 קארו יוסף","geocoded":{"lat":32.0704701,"lng":34.7920845}},{"address":"תל אביב - יפו 10 רמז דוד","geocoded":{"lat":32.0606385,"lng":34.8577694}},{"address":"תל אביב - יפו 16 פינסקר","geocoded":{"lat":32.0742022,"lng":34.7700079}},{"address":"הרצליה 7 השופטים","geocoded":{"lat":32.1524723,"lng":34.8413522}},{"address":"תל אביב - יפו 24 ב~ק ישראל","geocoded":{"lat":32.0682088,"lng":34.790553}},{"address":"רמת גן 4 ברוש","geocoded":{"lat":32.068424,"lng":34.824785}},{"address":"הרצליה 14 רביבים","geocoded":{"lat":32.1745418,"lng":34.8528259}},{"address":"תל אביב - יפו 7 הארד","geocoded":{"lat":32.111251,"lng":34.8408105}},{"address":"תל אביב - יפו 30 גוטמן נחום","geocoded":{"lat":32.1166454,"lng":34.8001495}},{"address":"ראשון לציון 2 מבצע הראל","geocoded":{"lat":31.9823037,"lng":34.7774626}},{"address":"תל אביב - יפו 27 סשא ארגוב","geocoded":{"lat":32.1261755,"lng":34.8330403}},{"address":"חולון 4 ויצמן","geocoded":{"lat":32.0221242,"lng":34.7737397}},{"address":"חולון 4 הבנאי","geocoded":{"lat":32.0166489,"lng":34.80556139999999}},{"address":"הרצליה 82 וינגייט","geocoded":{"lat":32.174848,"lng":34.803836}},{"address":"ראשון לציון 12 ברנר","geocoded":{"lat":32.105492,"lng":34.876524}},{"address":"תל אביב - יפו 0 קריה לתעשיות עתירות מדע","geocoded":{"lat":32.0734595,"lng":34.7847439}},{"address":"תל אביב - יפו 24 הארבעה","geocoded":{"lat":32.0702079,"lng":34.7858253}},{"address":"תל אביב - יפו 26 שד' הציונות","geocoded":{"lat":32.08924770000001,"lng":34.7933516}},{"address":"רמת גן 135 עוזיאל","geocoded":{"lat":32.0656271,"lng":34.8209559}},{"address":"תל אביב - יפו 111 דיזנגוף","geocoded":{"lat":32.0804266,"lng":34.7736682}},{"address":"תל אביב - יפו 1 שד' דוד המלך","geocoded":{"lat":32.0804879,"lng":34.7815915}},{"address":"תל אביב - יפו 11 חת~ם סופר","geocoded":{"lat":32.0885234,"lng":34.7771531}},{"address":"גבעתיים 10 בלוך","geocoded":{"lat":32.0768929,"lng":34.8127203}},{"address":"ראשון לציון 46 רוטשילד","geocoded":{"lat":31.9640384,"lng":34.8015694}},{"address":"תל אביב - יפו 47 שד' דוד המלך","geocoded":{"lat":32.0802461,"lng":34.7865504}},{"address":"ראשון לציון 25 צלליכין","geocoded":{"lat":31.9615004,"lng":34.7979584}},{"address":"הרצליה 71 הנדיב","geocoded":{"lat":32.17041800000001,"lng":34.8316479}},{"address":"תל אביב - יפו 4 פרחי אביב","geocoded":{"lat":32.0758582,"lng":34.7973078}},{"address":"תל אביב - יפו 6 שלונסקי","geocoded":{"lat":32.1174176,"lng":34.8197259}},{"address":"תל אביב - יפו 34 קבוץ גלויות","geocoded":{"lat":32.0759888,"lng":34.8392733}},{"address":"תל אביב - יפו 13 דרזנר יחיאל","geocoded":{"lat":32.1272974,"lng":34.8053425}},{"address":"תל אביב - יפו 2 טוסקניני","geocoded":{"lat":32.0731058,"lng":34.7805867}},{"address":"תל אביב - יפו 38 המצביאים","geocoded":{"lat":32.1200731,"lng":34.8325838}},{"address":"תל אביב - יפו 12 בבלי","geocoded":{"lat":32.0935749,"lng":34.7987215}},{"address":"רמת גן 45 ביאליק","geocoded":{"lat":32.0836103,"lng":34.8141607}},{"address":"תל אביב - יפו 49 טאגור רבינדרנארט","geocoded":{"lat":32.1181123,"lng":34.7993771}},{"address":"ראשון לציון 30 בקר","geocoded":{"lat":31.9730015,"lng":34.7925013}},{"address":"תל אביב - יפו 14 ביאליק","geocoded":{"lat":32.0720783,"lng":34.7707346}},{"address":"הרצליה 26 יפה אריה לייב","geocoded":{"lat":32.1706714,"lng":34.8456447}},{"address":"רמת גן 29 שד ירושלים","geocoded":{"lat":32.0748122,"lng":34.8224156}},{"address":"גבעתיים 55 בן צבי שמעון","geocoded":{"lat":32.0646166,"lng":34.8127057}},{"address":"רמת גן 35 אהרונסון שרה","geocoded":{"lat":32.0612738,"lng":34.8250836}},{"address":"ראשון לציון 4 ספיר יוסף","geocoded":{"lat":31.9917173,"lng":34.7504479}},{"address":"תל אביב - יפו 16 דיסנצ'יק אריה","geocoded":{"lat":32.1178321,"lng":34.82712070000001}},{"address":"חולון 18 הסדנה","geocoded":{"lat":32.0217423,"lng":34.8017592}},{"address":"תל אביב - יפו 26 בן אביגדור","geocoded":{"lat":32.066912,"lng":34.7906743}},{"address":"חולון 15 אילת","geocoded":{"lat":32.015833,"lng":34.787384}},{"address":"תל אביב - יפו 28 לילינבלום","geocoded":{"lat":32.0622041,"lng":34.7705045}},{"address":"רמת גן 12 יהודית","geocoded":{"lat":32.068424,"lng":34.824785}},{"address":"ראשון לציון 16 מלכי ישראל","geocoded":{"lat":31.97957229999999,"lng":34.7901107}},{"address":"תל אביב - יפו 10 ברודצקי","geocoded":{"lat":32.1052392,"lng":34.7960801}},{"address":"הרצליה 14 הוז דב","geocoded":{"lat":32.17601,"lng":34.81797299999999}},{"address":"תל אביב - יפו 22 לילינבלום","geocoded":{"lat":32.0619207,"lng":34.7696341}},{"address":"תל אביב - יפו 40 קוסובסקי","geocoded":{"lat":32.0983067,"lng":34.7986666}},{"address":"חולון 25 המרכבה","geocoded":{"lat":32.01503,"lng":34.808327}},{"address":"חולון 10 המנור","geocoded":{"lat":32.005086,"lng":34.803348}},{"address":"הרצליה 10 שד אמנון ותמר","geocoded":{"lat":32.1525056,"lng":34.8495011}},{"address":"תל אביב - יפו 8 הנחושת","geocoded":{"lat":32.1100436,"lng":34.8384495}},{"address":"תל אביב - יפו 17 צמח דוד","geocoded":{"lat":32.0554438,"lng":34.7807297}},{"address":"ראשון לציון 5 פיק~א","geocoded":{"lat":31.9733344,"lng":34.80773600000001}},{"address":"תל אביב - יפו 36 רש~י","geocoded":{"lat":32.0712135,"lng":34.77409350000001}},{"address":"תל אביב - יפו 29 דרזנר יחיאל","geocoded":{"lat":32.127343,"lng":34.8058382}},{"address":"תל אביב - יפו 33 בזל","geocoded":{"lat":32.0900999,"lng":34.7790431}},{"address":"תל אביב - יפו 8 בית שמאי","geocoded":{"lat":32.0692788,"lng":34.7889582}},{"address":"תל אביב - יפו 39 טאגור רבינדרנארט","geocoded":{"lat":32.1172273,"lng":34.7963906}},{"address":"תל אביב - יפו 6 סנהדרין","geocoded":{"lat":32.0959734,"lng":34.7976922}},{"address":"ראשון לציון 5 האלמוגים","geocoded":{"lat":31.9875904,"lng":34.7788911}},{"address":"תל אביב - יפו 7 קהילת סאלוניקי","geocoded":{"lat":32.1142768,"lng":34.8244748}},{"address":"תל אביב - יפו 7 פרלוק משה","geocoded":{"lat":32.1148186,"lng":34.7909561}},{"address":"תל אביב - יפו 0 שד' רוקח","geocoded":{"lat":32.1008349,"lng":34.7975147}},{"address":"תל אביב - יפו 14 קרליבך","geocoded":{"lat":32.0705071,"lng":34.7825751}},{"address":"רמת גן 6 בן אליעזר אריה","geocoded":{"lat":32.0692177,"lng":34.8324474}},{"address":"ראשון לציון 20 פרימן יעקב","geocoded":{"lat":31.9748933,"lng":34.8143595}},{"address":"חולון 11 הנפח","geocoded":{"lat":32.0199089,"lng":34.7974358}},{"address":"תל אביב - יפו 108 אבן גבירול","geocoded":{"lat":32.0842158,"lng":34.7819153}},{"address":"הרצליה 1 שנקר אריה","geocoded":{"lat":32.1608042,"lng":34.810067}},{"address":"הרצליה 37 יהושפט המלך","geocoded":{"lat":32.1704004,"lng":34.80816840000001}},{"address":"תל אביב - יפו 37 שד' שאול המלך","geocoded":{"lat":32.0776549,"lng":34.7900489}},{"address":"רמת גן 5 רש~י","geocoded":{"lat":32.0903421,"lng":34.8185598}},{"address":"הרצליה 18 שלוה","geocoded":{"lat":32.178284,"lng":34.81293240000001}},{"address":"תל אביב - יפו 10 שטרייכמן יחזקאל","geocoded":{"lat":32.1138811,"lng":34.7881037}},{"address":"תל אביב - יפו 9 אלי כהן","geocoded":{"lat":32.1218635,"lng":34.7929153}},{"address":"תל אביב - יפו 20 בן יהודה","geocoded":{"lat":32.0748951,"lng":34.7681931}},{"address":"תל אביב - יפו  בלוך דוד","geocoded":{"lat":32.0827889,"lng":34.784024}},{"address":"תל אביב - יפו 40 המסגר","geocoded":{"lat":32.0647273,"lng":34.7864995}},{"address":"תל אביב - יפו 82 בני דן","geocoded":{"lat":32.096755,"lng":34.7937803}},{"address":"רמת גן 12 היצירה","geocoded":{"lat":32.0859961,"lng":34.8023085}},{"address":"תל אביב - יפו 206 בן יהודה","geocoded":{"lat":32.0905422,"lng":34.774301}},{"address":"תל אביב - יפו 10 בראלי","geocoded":{"lat":32.1035899,"lng":34.7902764}},{"address":"ראשון לציון 4 קרל נטר","geocoded":{"lat":31.9722778,"lng":34.8060269}},{"address":"תל אביב - יפו 59 בן יהודה","geocoded":{"lat":32.0794608,"lng":34.7691162}},{"address":"תל אביב - יפו 3 גבעת התחמושת","geocoded":{"lat":32.0734682,"lng":34.7912402}},{"address":"חולון 44 פרופ' שור","geocoded":{"lat":32.0268227,"lng":34.7994692}},{"address":"חולון 92 סוקולוב","geocoded":{"lat":32.022407,"lng":34.7797926}},{"address":"תל אביב - יפו 58 אבן גבירול","geocoded":{"lat":32.0789016,"lng":34.7815665}},{"address":"תל אביב - יפו 11 קהילת ריגא","geocoded":{"lat":32.1148979,"lng":34.8213653}},{"address":"תל אביב - יפו 13 עזרא הסופר","geocoded":{"lat":32.0698765,"lng":34.7657042}},{"address":"חולון 12 הכישור","geocoded":{"lat":32.0055384,"lng":34.8058568}},{"address":"תל אביב - יפו 5 רלב~ג","geocoded":{"lat":32.0518776,"lng":34.7780248}},{"address":"הרצליה 49 בר אילן","geocoded":{"lat":32.1633894,"lng":34.837955}},{"address":"הרצליה 8 המנופים","geocoded":{"lat":32.1596062,"lng":34.80714950000001}},{"address":"תל אביב - יפו 15 ברזיל","geocoded":{"lat":32.111855,"lng":34.7963339}},{"address":"רמת גן 164 ביאליק","geocoded":{"lat":32.0896787,"lng":34.8016724}},{"address":"תל אביב - יפו 99 ריש גלותא","geocoded":{"lat":32.0509808,"lng":34.7572501}},{"address":"ראשון לציון 16 בלקינד שמשון","geocoded":{"lat":31.9730015,"lng":34.7925013}},{"address":"רמת גן 17 הרקון","geocoded":{"lat":32.0859014,"lng":34.8018462}},{"address":"תל אביב - יפו 15 קרליבך","geocoded":{"lat":32.0675323,"lng":34.7832102}},{"address":"תל אביב - יפו 15 לינקולן","geocoded":{"lat":32.0665713,"lng":34.7826775}},{"address":"תל אביב - יפו 6 תושיה","geocoded":{"lat":32.06663390000001,"lng":34.788253}},{"address":"ראשון לציון 7 טוליפמן","geocoded":{"lat":31.9824983,"lng":34.8129106}},{"address":"תל אביב - יפו 110 דרך נמיר מרדכי","geocoded":{"lat":32.0935402,"lng":34.7950373}},{"address":"הרצליה 62 האשל","geocoded":{"lat":32.1837542,"lng":34.8098005}},{"address":"תל אביב - יפו 13 בית עובד","geocoded":{"lat":32.0643088,"lng":34.7879311}},{"address":"תל אביב - יפו 12 בן אביגדור","geocoded":{"lat":32.0672282,"lng":34.7887115}},{"address":"תל אביב - יפו 20 שדרות רוטשילד","geocoded":{"lat":32.062881,"lng":34.7713666}},{"address":"תל אביב - יפו 38 הברזל","geocoded":{"lat":32.1105307,"lng":34.8424899}},{"address":"תל אביב - יפו 3 פסטרנק אריה","geocoded":{"lat":32.1180734,"lng":34.7967978}},{"address":"תל אביב - יפו 169 הירקון","geocoded":{"lat":32.0858503,"lng":34.7701634}},{"address":"תל אביב - יפו 13 מניה וישראל","geocoded":{"lat":32.1199617,"lng":34.8026735}},{"address":"תל אביב - יפו 160 הרצל","geocoded":{"lat":32.04969430000001,"lng":34.7691412}},{"address":"תל אביב - יפו 21 יוניצ'מן","geocoded":{"lat":32.1434378,"lng":34.7933246}},{"address":"תל אביב - יפו 92 שד' ירושלים","geocoded":{"lat":32.0745196,"lng":34.8297487}},{"address":"הרצליה 0 שד גלים","geocoded":{"lat":32.162413,"lng":34.844675}},{"address":"תל אביב - יפו 44 שלומציון המלכה","geocoded":{"lat":32.0950119,"lng":34.7896571}},{"address":"תל אביב - יפו 15 פרלוק משה","geocoded":{"lat":32.1160472,"lng":34.7916814}},{"address":"תל אביב - יפו 3 הברזל","geocoded":{"lat":32.1068181,"lng":34.8353169}},{"address":"ראשון לציון 8 ברזילי","geocoded":{"lat":31.9652627,"lng":34.7919475}},{"address":"רמת גן  עמוס","geocoded":{"lat":32.0551163,"lng":34.8188809}},{"address":"תל אביב - יפו 6 בר הופמן","geocoded":{"lat":32.0568593,"lng":34.7631517}},{"address":"ראשון לציון 9 לישנסקי יוסף","geocoded":{"lat":31.98999229999999,"lng":34.7646708}},{"address":"חולון 4 השחר","geocoded":{"lat":32.012115,"lng":34.788245}},{"address":"תל אביב - יפו 42 רציף הרברט סמואל","geocoded":{"lat":32.0717301,"lng":34.7644713}},{"address":"תל אביב - יפו 35 שד' שאול המלך","geocoded":{"lat":32.0773805,"lng":34.7898762}},{"address":"תל אביב - יפו 59 מטלון","geocoded":{"lat":32.0584798,"lng":34.7744682}},{"address":"ראשון לציון 15 פלוטיצקי","geocoded":{"lat":31.980766,"lng":34.811742}},{"address":"תל אביב - יפו 42 המסגר","geocoded":{"lat":32.0650713,"lng":34.7866882}},{"address":"תל אביב - יפו 3 אלי כהן","geocoded":{"lat":32.1218948,"lng":34.7923404}},{"address":"תל אביב - יפו 12 רזיאל","geocoded":{"lat":32.0561791,"lng":34.7577146}},{"address":"תל אביב - יפו 16 הרצל","geocoded":{"lat":32.0618845,"lng":34.7701447}},